~VERSION INFORMATION
 VERS.                 2.0:   CWLS LOG ASCII STANDARD - VERSION 2.0
 WRAP.                  NO:   SINGLE LINE PER DEPTH STEP
 CREA.                 15/04/2025 16:02:59
#CREATED USING IP VERSION 4.5.2019.2902 BY ASUS ON 15/04/2025 16:02:59
~WELL INFORMATION
#MNEM.UNIT       DATA                          DESCRIPTION MNEMONIC
#---------      ---------------------------   --------------------------
 STRT    .M         1371.6000                 : START DEPTH
 STOP    .M         1905.0000                 : STOP DEPTH
 STEP    .M         0.1524                    : STEP VALUE
 NULL    .      -999.0000                     : NULL VALUE
 DATE    .      15/04/2025                    : LAS file Creation Date
 WELL   .      ABB-035                                            : Well Name
 COM1   .      Original database: Master Database IP ABAB (Meter) : Well Comment
 COMP   .                                                         : Company
 FLD    .                                                         : Field
 UWI    .      9803035                                            : Unique Well Identifier (UWI)
 LOC    .      TWP        - Range       - Sec                     : Location
 PDAT   .      GR                                                 : Permanent Datum
 LGMEA  .      KB                                                 : Log Measured from
 DRMEA  .      KB                                                 : Drill Measured From
 KB     .      17.34                                              : KB Elevation
 DF     .      -999.2500                                          : DF Elevation
 GL     .      -999.2500                                          : GL Elevation
 RWS    .      -999                                               : Def_Rw
 WST    .      -999                                               : Def_Rwt
 PROV   .                                                         : Province
 SRVC   .      SCH                                                : Contractor
 GDAT   .      WGS 84                                             : Geodatum
 LONG   .      0                                                  : Longitude
 LATI   .      0                                                  : Latitude
 COORDIN.                                                         : Grid System
 XCOORD .                                                         : X or East-West Coordinate
 YCOORD .                                                         : Y or North-South Coordinate
~CURVE INFORMATION
#MNEM              UNIT       API CODE   Curve Type Comments
#----------  --------------- ----------  ---------- -----------
 DEPTH      .M                         : Depth       
 CALI       .in                        : Caliper     CALI
 SP         .mV                        : SP          SP
 GR         .gAPI                      : GammaRay    GR
 RT         .ohm.m                     : DeepRes     ILD
 NPHI       .ft3/ft3                   : Neutron     CNL
 RHOB       .g/cm3                     : Density     DENS
~A  DEPTH    CALI       SP        GR        RT       NPHI      RHOB   
# ...
1681.5816    7.9570  -74.9610   16.9705    1.5950    0.3215    2.2680 
1681.7340    7.9590  -83.9480    4.6694    1.4920    0.3322    2.2190 
1681.8864    7.9610  -91.0660   -2.4249    1.4110    0.3503    2.1780 
1682.0388    7.9730  -98.4729   -6.6122    1.3310    0.3466    2.1660 
1682.1912    7.9860 -101.1670   -8.0785    1.2810    0.3500    2.1570 
1682.3436    7.9980 -103.7470   -6.7388    1.2500    0.3446    2.1420 
1682.4960    8.0090 -105.5540   -6.1420    1.2510    0.3285    2.1560 
1682.6484    8.0200 -107.5980   -4.6223    1.2780    0.3154    2.1670 
1682.8008    8.0310 -107.6680    0.0473    1.3070    0.3056    2.1750 
1682.9532    8.0470 -106.7640   -1.4899    1.3450    0.2957    2.2050 
1683.1056    8.0630 -105.6040   -5.1102    1.3830    0.2879    2.2240 
1683.2580    8.0800 -105.1690   -7.3524    1.3870    0.2925    2.2070 
1683.4104    8.0960 -106.8840   -9.8567    1.3910    0.3038    2.1680 
1683.5628    8.1120 -108.3790  -13.5729    1.3950    0.3042    2.1540 
1683.7152    8.1260 -109.6640  -12.1192    1.4090    0.3020    2.1690 
1683.8676    8.1390 -108.5280   -3.8784    1.4310    0.2829    2.1740 
1684.0200    8.1530 -105.0520    9.3571    1.4520    0.2752    2.2050 
1684.1724    8.1600  -98.9980   14.5088    1.5290    0.2763    2.2450 
1684.3248    8.1910  -93.0940   11.5306    1.6300    0.2854    2.2630 
1684.4772    8.2600  -85.6820    8.7463    1.8120    0.2906    2.2500 
1684.6296    8.3300  -81.4211    5.6111    2.0150    0.3606    2.1700 
1684.7820    8.6550  -83.1700    5.3300    2.2320    0.4307    2.0220 
1684.9344    8.9490  -84.1139   17.5967    2.4490    0.5007    2.0170 
1685.0868    9.0970  -79.4609   41.6411    2.6680    0.5382    2.0130 
1685.2392    9.2450  -68.9819   52.1999    2.9010    0.5099    2.0090 
1685.3916    9.4150  -52.6960   57.0146    3.1630    0.4816    2.0040 
1685.5440    9.6310  -39.6421   57.7794    3.4300    0.4586    2.0000 
1685.6964    9.8130  -31.3711   57.6041    3.6210    0.4076    2.1190 
1685.8488    9.6360  -27.6960   56.1789    3.6450    0.3567    2.1250 
1686.0012    9.6500  -24.8650   54.8836    3.6140    0.3058    2.1350 
1686.1536    9.7030  -22.4950   54.6083    3.5600    0.2750    2.2280 
1686.3060    9.7950  -20.2840   57.2830    3.5000    0.2859    2.3600 
1686.4584    9.8870  -18.5630   59.5677    3.4200    0.3288    2.3710 
1686.6108   10.0880  -17.2340   63.9025    3.3390    0.3717    2.3330 
1686.7632   10.3790  -16.6900   68.1772    3.2850    0.3730    2.2650 
1686.9156   10.6460  -16.1450   73.3319    3.2340    0.3875    2.2550 
1687.0680   10.8050  -15.9140   77.1165    3.1840    0.4088    2.2440 
1687.2204   10.7310  -16.0150   73.1713    3.1530    0.4203    2.2140 
1687.3728   10.5170  -16.6970   63.7661    3.1290    0.3648    2.1570 
1687.5252    9.8640  -16.9980   55.4008    3.1070    0.3093    2.1040 
1687.6776    9.7060  -17.2710   50.5616    3.1410    0.2720    2.1680 
1687.8300    9.5480  -17.2090   50.2983    3.1740    0.2790    2.2980 
1687.9824    9.6660  -16.8940   52.2950    3.2150    0.3471    2.3710 
1688.1348   10.1270  -16.6820   51.8996    3.2820    0.3737    2.3540 
1688.2872   10.6150  -16.5610   47.8034    3.4070    0.3940    2.2740 
1688.4396   10.8380  -16.4410   43.5142    3.6580    0.4102    2.1770 
1688.5920   10.9570  -16.4230   36.2359    3.8580    0.4251    2.0820 
1688.7444   10.1050  -16.4860   26.8166    3.9860    0.4347    1.9990 
1688.8968    9.7560  -16.7130   20.5554    4.0250    0.4171    1.9990 
1689.0492   10.7270  -17.0150   22.7671    4.0130    0.4739    1.9990 
1689.2016   11.6990  -17.3290   29.5229    3.9400    0.5053    2.0000 
1689.3540   12.2980  -17.9650   40.5634    3.8330    0.5647    2.0000 
1689.5064   12.5710  -18.4760   43.8881    3.6650    0.5973    2.0000 
1689.6588   12.6400  -19.5490   43.4010    3.5000    0.5976    2.0000 
1689.8112   13.2860  -20.9350   48.2839    3.3360    0.5980    2.0000 
1689.9636   13.5570  -21.1900   65.7063    3.1730    0.5982    2.0000 
1690.1160   13.5530  -21.4450   75.0154    3.0780    0.5102    2.0000 
1690.2684   11.2640  -21.8040   83.1280    2.9860    0.4222    2.0010 
1690.4208   10.5580  -22.1930   91.8205    2.9420    0.4463    2.0010 
1690.5732   10.5210  -22.0230   97.8030    2.9010    0.4704    2.0840 
1690.7256   10.8940  -21.6250  100.8053    2.8930    0.4945    2.0910 
1690.8780   11.8620  -20.9250   91.1881    2.8840    0.5758    2.0800 
1691.0304   12.3810  -21.1930   82.8706    2.8310    0.5910    2.0260 
1691.1828   12.7410  -22.0090   73.1632    2.7310    0.5869    2.0230 
1691.3352   12.9890  -22.8260   70.3957    2.6440    0.5963    2.0190 
1691.4876   12.7640  -22.6890   69.6482    2.5860    0.5900    2.0160 
1691.6400   12.3120  -22.5650   66.7107    2.5360    0.5968    2.0130 
1691.7924   12.0950  -22.9730   62.0432    2.5150    0.5987    2.0090 
1691.9448   10.4260  -23.0040   59.5557    2.5170    0.5577    2.0060 
1692.0972   10.6820  -22.8540   59.6183    2.5400    0.4927    2.0020 
1692.2496   11.0560  -22.6960   57.6608    2.5640    0.4698    2.0690 
1692.4020   10.8120  -22.1030   55.3634    2.5660    0.4506    2.0610 
1692.5544    9.8230  -20.1800   56.9658    2.5670    0.4124    2.0380 
1692.7068    9.2450  -19.1580   60.3985    2.5680    0.3150    2.0720 
1692.8592    9.1590  -18.7940   67.8609    2.5860    0.2684    2.1540 
1693.0116    9.1200  -19.0520   76.2533    2.5910    0.2402    2.3020 
1693.1640    9.0820  -20.1580   80.3058    2.5950    0.2299    2.4730 
1693.3164    8.8110  -22.1470   76.9785    2.5990    0.2331    2.4580 
1693.4688    8.5240  -25.0720   70.3710    2.5650    0.2383    2.4440 
1693.6212    8.3130  -28.7420   61.9835    2.5020    0.2435    2.4320 
1693.7736    8.1520  -35.4190   54.8660    2.3410    0.2502    2.3890 
1693.9260    8.1010  -45.3940   48.2145    2.1670    0.2561    2.3660 
1694.0784    8.1100  -53.0440   42.0251    1.9850    0.2563    2.3480 
1694.2308    8.1190  -62.1210   37.6686    1.8010    0.2542    2.3440 
1694.3832    8.1280  -68.7290   34.9860    1.6210    0.2695    2.3520 
1694.5356    8.1380  -74.3060   27.5897    1.4640    0.2815    2.3150 
1694.6880    8.1920  -82.5210   20.0762    1.3430    0.2956    2.2590 
1694.8404    8.2540  -90.2270   13.7677    1.2340    0.2888    2.2120 
1694.9928    8.2440  -97.5280    9.6643    1.1670    0.2810    2.2110 
1695.1452    8.2350 -105.5230   10.4267    1.1000    0.3057    2.2010 
1695.2976    8.1810 -111.7440   12.6362    1.0480    0.3060    2.1920 
1695.4500    8.1030 -114.8700    8.5718    1.0310    0.3047    2.1810 
1695.6024    8.0300 -116.5870    3.4293    1.0140    0.3091    2.1710 
1695.7548    7.9570 -118.0270   -1.3432    1.0060    0.3340    2.1530 
1695.9072    7.9250 -117.8370   -5.5276    0.9960    0.3442    2.1390 
1696.0596    7.9170 -117.7070   -8.0771    0.9860    0.3601    2.1320 
1696.2120    7.9080 -118.4070   -9.2976    0.9910    0.3570    2.1450 
1696.3644    7.9220 -119.1370   -8.5531    1.0040    0.3407    2.1270 
1696.5168    7.9360 -119.5370   -7.0015    1.0160    0.3309    2.1670 
1696.6692    7.9450 -119.8270   -6.5900    1.0250    0.3261    2.1870 
1696.8216    7.9540 -119.7670   -6.1565    1.0350    0.3258    2.1840 
1696.9740    7.9640 -119.4270   -5.7320    1.0440    0.3419    2.1890 
1697.1264    7.9730 -119.6570   -5.3654    1.0450    0.3361    2.1940 
1697.2788    7.9820 -119.8470   -4.9979    1.0450    0.3426    2.1870 
1697.4312    7.9910 -119.8070   -6.3774    1.0450    0.3484    2.1740 
1697.5836    8.0210 -119.7670   -7.3249    1.0460    0.3450    2.1620 
1697.7360    8.0510 -119.7170   -6.2724    1.0460    0.3358    2.1420 
1697.8884    8.1170 -119.6770   -6.1128    1.0870    0.3281    2.1370 
1698.0408    8.1880 -119.6370   -6.4603    1.1500    0.3337    2.1460 
1698.1932    8.2890 -118.2070   -5.9858    1.2330    0.3429    2.1300 
1698.3456    8.4370 -116.6370   -3.3792    1.4340    0.3644    2.1180 
1698.4980    8.6350 -111.8430    0.8933    1.6530    0.3677    2.1010 
1698.6504    8.8640 -105.9050    6.5519    1.9210    0.4176    2.0720 
