~VERSION INFORMATION
 VERS.                 2.0:   CWLS LOG ASCII STANDARD - VERSION 2.0
 WRAP.                  NO:   SINGLE LINE PER DEPTH STEP
 CREA.                 15/04/2025 16:02:59
#CREATED USING IP VERSION 4.5.2019.2902 BY ASUS ON 15/04/2025 16:02:59
~WELL INFORMATION
#MNEM.UNIT       DATA                          DESCRIPTION MNEMONIC
#---------      ---------------------------   --------------------------
 STRT    .M         1371.6000                 : START DEPTH
 STOP    .M         1905.0000                 : STOP DEPTH
 STEP    .M         0.1524                    : STEP VALUE
 NULL    .      -999.0000                     : NULL VALUE
 DATE    .      15/04/2025                    : LAS file Creation Date
 WELL   .      ABB-035                                            : Well Name
 COM1   .      Original database: Master Database IP ABAB (Meter) : Well Comment
 COMP   .                                                         : Company
 FLD    .                                                         : Field
 UWI    .      9803035                                            : Unique Well Identifier (UWI)
 LOC    .      TWP        - Range       - Sec                     : Location
 PDAT   .      GR                                                 : Permanent Datum
 LGMEA  .      KB                                                 : Log Measured from
 DRMEA  .      KB                                                 : Drill Measured From
 KB     .      17.34                                              : KB Elevation
 DF     .      -999.2500                                          : DF Elevation
 GL     .      -999.2500                                          : GL Elevation
 RWS    .      -999                                               : Def_Rw
 WST    .      -999                                               : Def_Rwt
 PROV   .                                                         : Province
 SRVC   .      SCH                                                : Contractor
 GDAT   .      WGS 84                                             : Geodatum
 LONG   .      0                                                  : Longitude
 LATI   .      0                                                  : Latitude
 COORDIN.                                                         : Grid System
 XCOORD .                                                         : X or East-West Coordinate
 YCOORD .                                                         : Y or North-South Coordinate
~CURVE INFORMATION
#MNEM              UNIT       API CODE   Curve Type Comments
#----------  --------------- ----------  ---------- -----------
 DEPTH      .M                         : Depth       
 CALI       .in                        : Caliper     CALI
 SP         .mV                        : SP          SP
 GR         .gAPI                      : GammaRay    GR
 RT         .ohm.m                     : DeepRes     ILD
 NPHI       .ft3/ft3                   : Neutron     CNL
 RHOB       .g/cm3                     : Density     DENS
~A  DEPTH    CALI       SP        GR        RT       NPHI      RHOB   
# ...
1733.2452   13.1250  -30.8270   65.5506    5.1390    0.3772    2.4080 
1733.3976   13.1340  -31.0990   64.0332    5.1100    0.3891    2.4120 
1733.5500   13.1420  -31.6190   63.7887    5.1130    0.4067    2.4110 
1733.7024   13.1510  -32.6380   62.5833    5.1850    0.4051    2.3950 
1733.8548   13.1440  -33.8230   61.1169    5.2600    0.3895    2.3760 
1734.0072   13.1380  -35.3890   63.7783    5.3750    0.3841    2.3810 
1734.1596   13.1310  -36.5810   66.3438    5.4900    0.3832    2.3880 
1734.3120   13.1240  -36.7260   67.3624    5.6060    0.3838    2.4010 
1734.4644   13.1180  -36.7880   66.5989    5.6840    0.3868    2.4060 
1734.6168   13.1040  -35.6780   64.7494    5.7520    0.3981    2.3990 
1734.7692   13.0910  -34.8950   61.1659    5.8190    0.3999    2.3880 
1734.9216   13.0770  -34.6230   57.7875    5.8200    0.3947    2.3870 
1735.0740   13.0640  -34.3520   55.4150    5.8210    0.4016    2.3930 
1735.2264   13.0520  -34.8120   54.7295    5.8230    0.4068    2.3890 
1735.3788   13.0270  -35.1200   55.1010    5.8050    0.4075    2.3930 
1735.5312   12.9980  -34.5650   57.0326    5.7870    0.4028    2.3810 
1735.6836   12.9680  -34.6080   59.6761    5.7680    0.4095    2.3550 
1735.8360   12.9300  -35.1730   61.5056    5.7080    0.4241    2.3540 
1735.9884   12.8820  -35.7380   62.5651    5.6070    0.4278    2.3680 
1736.1408   12.8350  -35.8210   62.3067    5.5740    0.4214    2.3810 
1736.2932   12.7780  -35.9030   62.9492    5.5720    0.4121    2.3980 
1736.4456   12.7210  -35.6430   63.1507    5.5700    0.4063    2.4050 
1736.5980   12.6680  -35.1340   62.6062    5.5710    0.3930    2.4110 
1736.7504   12.6220  -35.0730   64.3838    5.6350    0.3795    2.4220 
1736.9028   12.5760  -35.1920   65.8293    5.6980    0.3741    2.4280 
1737.0552   12.5300  -33.9700   66.5368    5.7640    0.3630    2.4370 
1737.2076   12.4900  -32.7480   67.2453    5.8720    0.3298    2.4320 
1737.3600   12.5530  -31.9890   68.8798    5.9810    0.3167    2.4320 
1737.5124   12.5100  -31.3820   68.4354    6.0600    0.3135    2.4280 
1737.6648   12.4650  -31.2750   66.8559    6.1390    0.3102    2.4230 
1737.8172   12.4170  -31.1680   63.4704    6.2180    0.3083    2.4400 
1737.9696   12.3680  -30.9380   61.1549    6.3010    0.2946    2.4640 
1738.1220   12.3320  -30.5670   59.2905    6.3920    0.2719    2.4810 
1738.2744   12.2950  -30.2200   57.9090    6.4830    0.2713    2.4750 
1738.4268   12.2660  -29.8800   59.2095    6.5680    0.2852    2.4570 
1738.5792   12.2360  -30.1840   62.0310    6.6350    0.2960    2.4110 
1738.7316   12.2040  -30.5460   63.9426    6.6660    0.3069    2.4040 
1738.8840   12.1710  -30.8010   65.4471    6.6380    0.3067    2.4220 
1739.0364   12.1460  -31.0550   66.3036    6.6060    0.3060    2.4440 
1739.1888   12.1200  -30.9790   67.1711    6.5610    0.3067    2.4630 
1739.3412   12.0950  -30.8090   67.8937    6.4730    0.3116    2.4800 
1739.4936   12.0700  -30.2940   66.9872    6.3730    0.3226    2.4570 
1739.6460   12.0480  -29.8710   69.0827    6.2590    0.3262    2.4330 
1739.7984   12.0260  -30.0980   70.0272    6.1440    0.3290    2.4230 
1739.9508   11.9930  -30.1520   69.4538    6.0040    0.3362    2.4310 
1740.1032   11.9600  -30.8650   68.8663    5.8520    0.3433    2.4280 
1740.2556   11.9320  -31.3550   68.5548    5.7030    0.3421    2.4410 
1740.4080   11.9050  -31.5890   69.5723    5.5650    0.3408    2.4440 
1740.5604   11.8770  -31.9190   70.2149    5.4260    0.3336    2.4470 
1740.7128   11.8440  -32.7330   70.2094    5.2900    0.3240    2.4290 
1740.8652   11.8110  -33.1040   71.6029    5.1550    0.3143    2.4010 
1741.0176   11.7780  -33.2240   74.1774    5.0600    0.3062    2.3910 
1741.1700   11.7360  -33.3440   74.4009    5.0500    0.3062    2.4070 
1741.3224   11.6940  -33.1950   73.7995    5.0400    0.3073    2.4140 
1741.4748   11.6520  -33.0390   73.8580    5.0360    0.3086    2.4220 
1741.6272   11.6190  -32.8480   73.2295    5.0320    0.3116    2.4420 
1741.7796   11.5860  -32.6540   73.7450    5.0210    0.3122    2.4430 
1741.9320   11.5530  -32.4600   73.6946    5.0050    0.3095    2.4190 
1742.0844   11.5200  -32.2040   74.1861    5.0120    0.3037    2.4190 
1742.2368   11.4870  -31.8700   73.9976    5.0290    0.2926    2.4410 
1742.3892   11.4540  -31.5010   74.0831    5.0460    0.2871    2.4670 
1742.5416   11.4110  -31.3130   73.1047    5.0630    0.3128    2.4740 
1742.6940   11.3680  -31.1670   72.0622    5.0430    0.3237    2.4690 
1742.8464   11.3250  -31.1390   70.7057    5.0220    0.3218    2.4510 
1742.9988   11.2820  -31.1110   71.4812    5.0000    0.3113    2.4610 
1743.1512   11.2390  -30.6730   73.3558    4.9640    0.3026    2.4460 
1743.3036   11.1870  -30.5980   75.7793    4.9270    0.2905    2.4280 
1743.4560   11.1340  -30.5240   76.5148    4.8910    0.2916    2.4150 
1743.6084   11.0790  -30.4500   77.8843    4.8840    0.2969    2.4150 
1743.7608   11.0240  -30.3750   76.3449    4.9040    0.3033    2.4280 
1743.9132   10.9600  -30.3010   75.2194    4.9240    0.3004    2.4440 
1744.0656   10.8970  -30.2270   74.9499    4.9490    0.2885    2.4650 
1744.2180   10.8370  -30.1520   75.9264    4.9790    0.2782    2.4520 
1744.3704   10.7780  -30.1900   79.0729    5.0090    0.2738    2.4310 
1744.5228   10.7240  -30.5720   81.1365    5.0380    0.2742    2.4170 
1744.6752   10.6690  -30.9540   81.4310    5.0610    0.2887    2.4140 
1744.8276   10.6250  -31.5390   79.8335    5.0850    0.3161    2.4260 
1744.9800   10.5990  -32.2660   78.3680    5.1170    0.3229    2.4280 
1745.1324   10.5680  -32.9980   77.7856    5.1550    0.3251    2.4330 
1745.2848   10.5370  -33.7390   79.8251    5.1670    0.3211    2.4380 
1745.4372   10.5110  -34.0770   82.7906    5.1780    0.3119    2.4400 
1745.5896   10.4850  -34.2120   85.2610    5.1900    0.3024    2.4500 
1745.7420   10.4660  -34.2590   83.8377    5.1330    0.2939    2.4580 
1745.8944   10.4470  -34.3060   83.4252    5.1270    0.2976    2.4390 
1746.0468   10.4350  -34.6840   81.2077    5.1300    0.2910    2.4370 
1746.1992   10.4230  -35.7450   80.1662    5.1930    0.2867    2.4560 
1746.3516   10.4170  -37.1460   79.2378    5.2560    0.2870    2.4510 
1746.5040   10.4060  -38.3680   77.9683    5.3480    0.2896    2.4380 
1746.6564   10.3940  -39.4540   76.1088    5.5130    0.2803    2.4280 
1746.8088   10.3530  -40.3590   74.0363    5.7380    0.2649    2.4340 
1746.9612   10.2920  -40.1740   74.4478    5.9900    0.2552    2.4450 
1747.1136   10.1930  -38.9330   71.7574    6.2260    0.2345    2.4660 
1747.2660   10.1490  -36.5080   68.7899    6.3780    0.2210    2.4950 
1747.4184   10.1270  -34.3030   67.1154    6.5180    0.2105    2.5030 
1747.5708   10.1050  -32.8770   67.8130    6.6300    0.2117    2.4930 
1747.7232   10.1130  -31.6930   69.7475    6.6280    0.2306    2.5060 
1747.8756   10.1200  -31.2570   73.2530    6.5550    0.2467    2.5040 
1748.0280   10.1280  -30.8200   77.9474    6.3520    0.2535    2.4730 
1748.1804   10.1370  -31.0030   78.7310    6.1300    0.2609    2.4340 
1748.3328   10.1380  -31.2290   79.1536    5.9310    0.2763    2.4230 
1748.4852   10.1390  -31.4980   79.0181    5.7580    0.2910    2.4090 
1748.6376   10.1390  -32.1250   78.3516    5.6200    0.2887    2.4020 
1748.7900   10.1440  -32.7240   79.8431    5.5740    0.2817    2.4010 
1748.9424   10.1570  -32.9500   82.2997    5.5520    0.2813    2.4010 
1749.0948   10.1580  -33.2950   83.2392    5.6130    0.2827    2.4080 
1749.2472   10.1580  -34.3160   84.3497    5.7080    0.2776    2.4200 
1749.3996   10.1580  -35.2970   83.5812    5.8220    0.2708    2.4300 
1749.5520   10.1450  -35.5240   82.1638    5.9670    0.2754    2.4300 
1749.7044   10.1310  -35.2100   81.9723    6.2810    0.2817    2.4350 
1749.8568   10.0660  -35.9100   83.0878    6.5930    0.2836    2.4300 
1750.0092    9.9160  -36.9970   85.8443    6.9050    0.2812    2.4260 
1750.1616    9.8800  -38.0830   89.3809    7.2250    0.2756    2.4130 
1750.3140    9.8700  -38.3480   93.1393    7.5450    0.2692    2.4180 
