~VERSION INFORMATION
 VERS.                 2.0:   CWLS LOG ASCII STANDARD - VERSION 2.0
 WRAP.                  NO:   SINGLE LINE PER DEPTH STEP
 CREA.                 15/04/2025 16:02:59
#CREATED USING IP VERSION 4.5.2019.2902 BY ASUS ON 15/04/2025 16:02:59
~WELL INFORMATION
#MNEM.UNIT       DATA                          DESCRIPTION MNEMONIC
#---------      ---------------------------   --------------------------
 STRT    .M         1371.6000                 : START DEPTH
 STOP    .M         1905.0000                 : STOP DEPTH
 STEP    .M         0.1524                    : STEP VALUE
 NULL    .      -999.0000                     : NULL VALUE
 DATE    .      15/04/2025                    : LAS file Creation Date
 WELL   .      ABB-035                                            : Well Name
 COM1   .      Original database: Master Database IP ABAB (Meter) : Well Comment
 COMP   .                                                         : Company
 FLD    .                                                         : Field
 UWI    .      9803035                                            : Unique Well Identifier (UWI)
 LOC    .      TWP        - Range       - Sec                     : Location
 PDAT   .      GR                                                 : Permanent Datum
 LGMEA  .      KB                                                 : Log Measured from
 DRMEA  .      KB                                                 : Drill Measured From
 KB     .      17.34                                              : KB Elevation
 DF     .      -999.2500                                          : DF Elevation
 GL     .      -999.2500                                          : GL Elevation
 RWS    .      -999                                               : Def_Rw
 WST    .      -999                                               : Def_Rwt
 PROV   .                                                         : Province
 SRVC   .      SCH                                                : Contractor
 GDAT   .      WGS 84                                             : Geodatum
 LONG   .      0                                                  : Longitude
 LATI   .      0                                                  : Latitude
 COORDIN.                                                         : Grid System
 XCOORD .                                                         : X or East-West Coordinate
 YCOORD .                                                         : Y or North-South Coordinate
~CURVE INFORMATION
#MNEM              UNIT       API CODE   Curve Type Comments
#----------  --------------- ----------  ---------- -----------
 DEPTH      .M                         : Depth       
 CALI       .in                        : Caliper     CALI
 SP         .mV                        : SP          SP
 GR         .gAPI                      : GammaRay    GR
 RT         .ohm.m                     : DeepRes     ILD
 NPHI       .ft3/ft3                   : Neutron     CNL
 RHOB       .g/cm3                     : Density     DENS
~A  DEPTH    CALI       SP        GR        RT       NPHI      RHOB   
# ...
1440.4848    9.1600  -17.6900    0.3166    0.8940    0.3709    2.2340 
1440.6372    9.5980  -17.5090    4.0628    0.8650    0.3751    2.1470 
1440.7896   10.2510  -16.8820    6.8190    0.8360    0.4013    2.0930 
1440.9420   10.9270  -17.1480    9.5763    0.7670    0.5347    2.0700 
1441.0944   11.6810  -17.2050   10.0555    0.6980    0.5587    2.0650 
1441.2468   11.5210  -17.2630   10.5357    0.6550    0.5826    2.1230 
1441.3992   10.5390  -16.2410   11.0149    0.6120    0.5480    2.1220 
1441.5516   10.4270  -15.3450   11.4711    0.5760    0.5325    2.1300 
1441.7040   10.5940  -15.1810   12.2754    0.5410    0.5359    2.1580 
1441.8564   10.8610  -15.0170   11.9166    0.4920    0.5129    2.1920 
1442.0088   10.4870  -15.4100   11.5568    0.5150    0.4880    2.1870 
1442.1612    9.7510  -15.8020   11.5290    0.5370    0.4625    2.2060 
1442.3136    9.6180  -15.9700   11.5023    0.5600    0.4283    2.2300 
1442.4660    9.4840  -16.1380   11.4745    0.5730    0.4028    2.2590 
1442.6184    9.4340  -16.2590   11.4727    0.5860    0.3868    2.2720 
1442.7708    9.4370  -16.3810   11.4719    0.6000    0.3740    2.2810 
1442.9232    9.3790  -16.3950   11.4701    0.6260    0.3738    2.2500 
1443.0756    9.2830  -16.4090   10.8084    0.6510    0.3871    2.2280 
1443.2280    9.1860  -16.3640   10.1466    0.6690    0.4051    2.2390 
1443.3804    9.1060  -16.3200    9.4848    0.6860    0.4142    2.2390 
1443.5328    8.9560  -15.9260    8.6070    0.7040    0.3883    2.2410 
1443.6852    8.8860  -15.5320    7.7302    0.7570    0.3843    2.2420 
1443.8376    8.8810  -15.0600    6.0035    0.8110    0.3917    2.2440 
1443.9900    8.8750  -14.5880    5.1987    0.8640    0.3977    2.2550 
1444.1424    8.8550  -14.4010    4.3919    0.9200    0.3900    2.2590 
1444.2948    8.8410  -14.2150    3.5871    0.9760    0.3875    2.2540 
1444.4472    8.7850  -14.2120    3.5163    1.0070    0.3765    2.2490 
1444.5996    8.7800  -14.2100    3.1786    1.0380    0.3624    2.2450 
1444.7520    8.7740  -14.5090    2.8398    1.0580    0.3565    2.2410 
1444.9044    8.7720  -14.8080    3.1830    1.0770    0.3507    2.2230 
1445.0568    8.7640  -15.1060    3.5262    1.0960    0.3482    2.2150 
1445.2092    8.7560  -15.4030    3.8695    1.1160    0.3442    2.2100 
1445.3616    8.7510  -15.5580    3.6427    1.1570    0.3487    2.2060 
1445.5140    8.7460  -15.7130    3.4169    1.1980    0.3576    2.2020 
1445.6664    8.7170  -15.5790    3.1901    1.2230    0.3556    2.2150 
1445.8188    8.6890  -16.4900    3.9353    1.2480    0.3470    2.2180 
1445.9712    8.6920  -17.1290    4.6816    1.2720    0.3390    2.2210 
1446.1236    8.7040  -17.1400    5.4268    1.2840    0.3401    2.2040 
1446.2760    8.7190  -16.7560    7.4870    1.2960    0.3412    2.1980 
1446.4284    8.7320  -16.3730    9.5482    1.3070    0.3534    2.1930 
1446.5808    8.7460  -16.0940   11.1135    1.2850    0.3572    2.1860 
1446.7332    8.6630  -16.3470   12.6797    1.2620    0.3669    2.1770 
1446.8856    8.3920  -18.0410    9.4599    1.2800    0.3821    2.1780 
1447.0380    8.5060  -21.0070    6.6391    1.2980    0.3829    2.2230 
1447.1904    8.6200  -24.6590    7.9133    1.1990    0.3173    2.2610 
1447.3428    8.8910  -29.7840    9.1876    1.0990    0.3128    2.2770 
1447.4952    9.2970  -30.3810   13.6968    0.9990    0.3802    2.2940 
1447.6476    9.7310  -27.8270   14.0040    0.9000    0.4141    2.2700 
1447.8000   10.1720  -24.9550   13.4422    0.8000    0.4380    2.1740 
1447.9524   10.5050  -22.4710   12.8804    0.7500    0.4553    2.1340 
1448.1048   10.6750  -20.0460   12.3187    0.7500    0.4710    2.0930 
1448.2572   10.5280  -18.6980   13.4059    0.7490    0.4864    2.0790 
1448.4096   10.9480  -18.7710   13.3611    0.7570    0.4893    2.0880 
1448.5620   10.8620  -18.8450   13.3173    0.7650    0.4862    2.0560 
1448.7144   10.6300  -18.9190   14.5246    0.7830    0.4917    2.0450 
1448.8668   10.2820  -19.2800   15.7318    0.8000    0.4701    2.0600 
1449.0192   10.0980  -19.6420   16.9390    0.8080    0.4463    2.1000 
1449.1716    9.9570  -20.0030   16.7452    0.8160    0.4444    2.1310 
1449.3240   10.0560  -19.7490   12.7034    0.8290    0.4413    2.1520 
1449.4764   10.3650  -19.4940   12.4217    0.8420    0.4358    2.1480 
1449.6288   10.8130  -19.4310   12.1399    0.8560    0.4792    2.1440 
1449.7812   10.7480  -19.3680   12.4771    0.8590    0.4936    2.1140 
1449.9336   10.6840  -19.1900   12.8143    0.8610    0.4782    2.0880 
1450.0860   10.5450  -19.0120   12.4335    0.8640    0.4832    2.0730 
1450.2384   10.4240  -18.8510   12.0518    0.8650    0.5451    2.0580 
1450.3908   10.3030  -18.6890   12.2150    0.8660    0.5588    2.0460 
1450.5432   10.8310  -18.8640   12.3402    0.8810    0.5726    2.0150 
1450.6956   11.3180  -19.0380   12.4644    0.8960    0.5799    1.9710 
1450.8480   11.4200  -19.1650   13.7097    0.9110    0.5873    1.9420 
1451.0004   10.6280  -19.2920   14.9549    0.9320    0.5644    1.9490 
1451.1528   10.6180  -20.0290   11.9261    0.9530    0.5327    1.9560 
1451.3052   10.2740  -20.7670   10.3023    0.9750    0.5083    1.9680 
1451.4576    9.5490  -21.5600    8.6796    1.0300    0.4606    1.9910 
1451.6100    9.4090  -21.3790    3.6238    1.0840    0.4279    2.0780 
1451.7624    9.2680  -21.1980    1.5610    1.1390    0.4226    2.1120 
1451.9148    9.1220  -20.1170   -0.5018    1.2110    0.4172    2.1080 
1452.0672    9.0410  -19.9340   -0.2916    1.2830    0.4194    2.1030 
1452.2196    9.0180  -20.9730   -2.2943    1.3540    0.4298    2.0820 
1452.3720    9.0650  -22.0130   -0.5471    1.3830    0.4551    2.0820 
1452.5244    9.0480  -23.6160    1.2011    1.4110    0.4615    2.0790 
1452.6768    9.0310  -24.4660    2.3183    1.4130    0.4432    2.1030 
1452.8292    8.9100  -25.3160    3.4365    1.4160    0.4188    2.1100 
1452.9816    8.8010  -26.8600    2.8488    1.4110    0.4127    2.1160 
1453.1340    8.6470  -28.4040    3.5020    1.4070    0.4066    2.1320 
1453.2864    8.4920  -28.3820    5.4982    1.3580    0.4019    2.1480 
1453.4388    8.4690  -28.1380    7.4944    1.3090    0.3972    2.1390 
1453.5912    8.4470  -28.6550    8.3156    1.2710    0.3749    2.1360 
1453.7436    8.4380  -30.1770    9.1359    1.2320    0.3676    2.1340 
1453.8960    8.4290  -31.4810    7.7371    1.1940    0.3724    2.1270 
1454.0484    8.4360  -32.7850    3.8023    1.2030    0.3863    2.1240 
1454.2008    8.4430  -33.5880   -0.1335    1.2270    0.4107    2.1210 
1454.3532    8.4500  -34.0040   -2.3442    1.2520    0.4035    2.1270 
1454.5056    8.5080  -33.9380   -4.5550    1.2770    0.3962    2.1470 
1454.6580    8.6560  -33.3610   -1.9358    1.2800    0.3861    2.1670 
1454.8104    8.8690  -32.4040    2.4334    1.2840    0.3934    2.1870 
1454.9628    9.6600  -30.0610    6.8016    1.2870    0.4208    2.1770 
1455.1152   10.2780  -27.7180   10.5499    1.2250    0.4482    2.1040 
1455.2676   10.3570  -25.0550   11.0581    1.1630    0.4707    2.0690 
1455.4200   10.1930  -23.0540   11.5653    1.1190    0.4688    2.0470 
1455.5724   10.0550  -22.0920   11.1225    1.0750    0.4749    2.0750 
1455.7248   10.3290  -21.7940   10.0287    1.0380    0.4850    2.1040 
1455.8772   10.6430  -21.4960    7.6250    1.0020    0.4933    2.0900 
1456.0296   10.9580  -21.1460    7.2332    0.9840    0.5018    2.0990 
1456.1820   10.8720  -20.8050    6.8414    0.9660    0.4952    2.1160 
1456.3344   10.5800  -20.4630    8.5376    0.9480    0.4885    2.1300 
1456.4868   10.3250  -20.0380   10.2339    0.9440    0.4895    2.1480 
1456.6392   10.2470  -19.6120   11.6501    0.9400    0.4906    2.1540 
1456.7916   10.2250  -18.6660   13.0653    0.9350    0.4942    2.0980 
1456.9440   10.5760  -18.0680   12.7155    0.9110    0.4911    2.1040 
1457.0964   10.9270  -17.4710   12.5417    0.8870    0.4840    2.1100 
1457.2488   11.2190  -17.3640   12.3680    0.8620    0.4816    2.0850 
1457.4012   11.3500  -17.5220   13.0572    0.8460    0.5073    2.0750 
1457.5536   11.3300  -17.6800   13.7464    0.8290    0.5142    2.0680 
