~VERSION INFORMATION
 VERS.                 2.0:   CWLS LOG ASCII STANDARD - VERSION 2.0
 WRAP.                  NO:   SINGLE LINE PER DEPTH STEP
 CREA.                 15/04/2025 16:02:59
#CREATED USING IP VERSION 4.5.2019.2902 BY ASUS ON 15/04/2025 16:02:59
~WELL INFORMATION
#MNEM.UNIT       DATA                          DESCRIPTION MNEMONIC
#---------      ---------------------------   --------------------------
 STRT    .M         1371.6000                 : START DEPTH
 STOP    .M         1905.0000                 : STOP DEPTH
 STEP    .M         0.1524                    : STEP VALUE
 NULL    .      -999.0000                     : NULL VALUE
 DATE    .      15/04/2025                    : LAS file Creation Date
 WELL   .      ABB-035                                            : Well Name
 COM1   .      Original database: Master Database IP ABAB (Meter) : Well Comment
 COMP   .                                                         : Company
 FLD    .                                                         : Field
 UWI    .      9803035                                            : Unique Well Identifier (UWI)
 LOC    .      TWP        - Range       - Sec                     : Location
 PDAT   .      GR                                                 : Permanent Datum
 LGMEA  .      KB                                                 : Log Measured from
 DRMEA  .      KB                                                 : Drill Measured From
 KB     .      17.34                                              : KB Elevation
 DF     .      -999.2500                                          : DF Elevation
 GL     .      -999.2500                                          : GL Elevation
 RWS    .      -999                                               : Def_Rw
 WST    .      -999                                               : Def_Rwt
 PROV   .                                                         : Province
 SRVC   .      SCH                                                : Contractor
 GDAT   .      WGS 84                                             : Geodatum
 LONG   .      0                                                  : Longitude
 LATI   .      0                                                  : Latitude
 COORDIN.                                                         : Grid System
 XCOORD .                                                         : X or East-West Coordinate
 YCOORD .                                                         : Y or North-South Coordinate
~CURVE INFORMATION
#MNEM              UNIT       API CODE   Curve Type Comments
#----------  --------------- ----------  ---------- -----------
 DEPTH      .M                         : Depth       
 CALI       .in                        : Caliper     CALI
 SP         .mV                        : SP          SP
 GR         .gAPI                      : GammaRay    GR
 RT         .ohm.m                     : DeepRes     ILD
 NPHI       .ft3/ft3                   : Neutron     CNL
 RHOB       .g/cm3                     : Density     DENS
~A  DEPTH    CALI       SP        GR        RT       NPHI      RHOB   
# ...
1698.8028    9.0450  -97.4820   21.3181    2.3750    0.4675    2.0110 
1698.9552    9.1570  -85.2230   25.1107    2.8170    0.5022    2.0080 
1699.1076    9.1360  -70.6670   19.7114    3.2730    0.4436    2.0060 
1699.2600    9.1150  -55.5751   15.3860    3.7960    0.3850    2.0040 
1699.4124    9.1360  -46.3121   15.7545    4.3800    0.3264    2.0010 
1699.5648    9.1570  -42.7310   23.2740    4.5990    0.3100    1.9990 
1699.7172    9.1780  -38.9850   38.7693    4.6100    0.3708    2.0810 
1699.8696    9.2340  -34.6080   43.3608    4.5390    0.4141    2.2040 
1700.0220    9.2900  -30.2420   33.7866    4.3510    0.4326    2.1400 
1700.1744    9.3250  -28.4530   28.5820    4.1770    0.3501    2.0650 
1700.3268    9.2930  -27.1770   25.7887    4.0090    0.2676    2.0000 
1700.4792    9.2610  -26.0770   32.7812    3.8860    0.2201    2.2230 
1700.6316    9.2450  -24.3180   44.7375    3.7630    0.2026    2.3460 
1700.7840    9.2290  -22.6060   52.5841    3.6450    0.1935    2.4620 
1700.9364    9.2160  -23.2090   59.8006    3.5370    0.1920    2.4660 
1701.0888    9.2020  -26.0750   66.3172    3.4300    0.2022    2.4640 
1701.2412    9.0250  -30.4740   71.9296    3.3560    0.2056    2.4530 
1701.3936    8.9060  -35.4900   71.5522    3.2840    0.2105    2.4550 
1701.5460    8.8040  -41.0850   71.3448    3.1610    0.2203    2.4530 
1701.6984    8.6900  -44.1920   74.1473    3.0420    0.2341    2.4260 
1701.8508    8.5650  -45.5680   77.3998    2.8160    0.2421    2.4190 
1702.0032    8.4200  -48.2280   80.3722    2.6270    0.2503    2.3980 
1702.1556    8.2590  -51.8610   79.3248    2.4380    0.2608    2.3780 
1702.3080    8.1770  -57.1670   79.0574    2.2660    0.2722    2.3520 
1702.4604    8.0950  -62.6880   76.9499    2.0930    0.2733    2.3170 
1702.6128    8.0710  -66.9720   73.7724    1.9400    0.2852    2.3080 
1702.7652    8.0480  -69.3180   69.4148    1.7920    0.2937    2.3320 
1702.9176    8.0460  -73.3591   59.7104    1.6440    0.3135    2.3490 
1703.0700    8.0450  -81.8810   41.5630    1.5510    0.3124    2.3410 
1703.2224    8.0370  -91.1830   24.3775    1.4700    0.3062    2.3100 
1703.3748    8.0300 -100.7200    4.5012    1.4030    0.2939    2.2650 
1703.5272    8.0220 -108.1240   -3.7393    1.3570    0.2861    2.2390 
1703.6796    8.0170 -112.5850   -6.8258    1.3250    0.2802    2.2290 
1703.8320    8.0120 -115.7870   -4.5154    1.2930    0.2803    2.2330 
1703.9844    8.0160 -117.9870   -2.7369    1.2610    0.2853    2.2550 
1704.1368    8.0200 -119.7970   -0.0974    1.2290    0.2843    2.2600 
1704.2892    8.0370 -120.4170    2.9572    1.1960    0.2788    2.2560 
1704.4416    8.0540 -121.1170    5.2667    1.1640    0.2767    2.2470 
1704.5940    8.0710 -122.0570    4.1572    1.1310    0.2745    2.2350 
1704.7464    8.0870 -122.9570    1.4587    1.0920    0.2733    2.2380 
1704.8988    8.1010 -123.6370   -0.1787    1.0380    0.2761    2.2390 
1705.0512    8.1150 -123.9270   -0.8842    0.9840    0.2884    2.2360 
1705.2036    8.1290 -124.0870   -0.9767    0.9670    0.2880    2.2360 
1705.3560    8.1430 -123.8270    0.1768    0.9510    0.2873    2.2240 
1705.5084    8.1570 -124.0370    1.4784    0.9350    0.2911    2.2130 
1705.6608    8.1600 -124.0870    2.9389    0.9320    0.2911    2.2030 
1705.8132    8.1630 -124.1370    3.4254    0.9300    0.2907    2.1970 
1705.9656    8.1660 -124.3670    3.9109    0.9270    0.3002    2.1830 
1706.1180    8.1670 -125.1570    4.0035    0.9240    0.3027    2.1710 
1706.2704    8.1670 -125.3470    2.6770    0.9220    0.3017    2.1660 
1706.4228    8.1670 -125.5470    3.3655    0.9190    0.3010    2.1710 
1706.5752    8.1670 -125.7470    3.2180    0.9150    0.3029    2.1800 
1706.7276    8.1700 -125.9670    2.4366    0.9100    0.3102    2.1910 
1706.8800    8.1730 -126.2270    1.6541    0.9050    0.3200    2.1930 
1707.0324    8.1760 -126.3370    1.7236    0.9010    0.3256    2.2030 
1707.1848    8.1670 -126.2170    3.3961    0.8960    0.3331    2.2100 
1707.3372    8.1580 -126.0970    5.5607    0.8920    0.3329    2.1850 
1707.4896    8.1490 -125.9370    5.9041    0.8870    0.3274    2.1790 
1707.6420    8.1330 -125.7470    2.6357    0.8920    0.3210    2.1740 
1707.7944    8.1170 -125.5770   -0.4308    0.9000    0.3148    2.1800 
1707.9468    8.1010 -125.3170   -1.2522    0.9080    0.3132    2.1880 
1708.0992    8.0920 -125.0970    2.3503    0.9160    0.3136    2.1830 
1708.2516    8.0840 -125.0470    4.0798    0.9320    0.3188    2.1700 
1708.4040    8.0750 -125.0370    3.5853    0.9520    0.3274    2.1770 
1708.5564    8.0740 -125.0370    4.3008    0.9730    0.3254    2.1840 
1708.7088    8.0730 -125.1370    3.6834    0.9830    0.3245    2.1910 
1708.8612    8.0720 -125.2270    2.9989    1.0440    0.3249    2.1750 
1709.0136    8.0710 -125.3270    1.9314    1.0430    0.3291    2.1580 
1709.1660    8.0780 -125.4270    0.7499    1.0330    0.3339    2.1530 
1709.3184    8.0850 -125.5270   -0.2135    1.0240    0.3248    2.1560 
1709.4708    8.0930 -125.6170    1.1120    1.0150    0.3149    2.1660 
1709.6232    8.1020 -126.0170    1.6595    1.0030    0.3103    2.1750 
1709.7756    8.1110 -126.8370    0.7800    0.9910    0.3152    2.1640 
1709.9280    8.1200 -127.7670   -1.3264    0.9790    0.3273    2.1530 
1710.0804    8.1340 -128.7170   -1.9249    0.9710    0.3369    2.1530 
1710.2328    8.1480 -129.4570   -1.3954    0.9630    0.3487    2.1570 
1710.3852    8.1610 -130.0070   -0.0209    0.9550    0.3474    2.1580 
1710.5376    8.1750 -130.4570    0.6207    0.9450    0.3335    2.1620 
1710.6900    8.1890 -130.3670   -0.3998    0.9330    0.3251    2.1530 
1710.8424    8.2000 -130.2870   -1.5363    0.9200    0.3268    2.1390 
1710.9948    8.2110 -130.1970   -2.6358    0.8810    0.3369    2.1320 
1711.1472    8.2220 -129.9870   -1.6833    0.8690    0.3481    2.1320 
1711.2996    8.2270 -129.5670   -0.3227    0.8580    0.3453    2.1260 
1711.4520    8.2330 -129.1370    0.1138    0.8850    0.3382    2.1190 
1711.6044    8.2530 -128.7170    0.5513    0.9310    0.3422    2.1130 
1711.7568    8.3010 -127.2970    2.0028    0.9770    0.3345    2.1200 
1711.9092    8.3730 -125.1670    3.7904    1.0390    0.3315    2.1180 
1712.0616    8.4780 -120.7870    6.6729    1.1600    0.3297    2.1230 
1712.2140    8.6260 -113.6660    8.7314    1.2810    0.3262    2.1410 
1712.3664    8.9560 -106.1009   13.5930    1.4570    0.3615    2.1750 
1712.5188    9.3290  -92.8607   28.6594    1.6420    0.3701    2.2050 
1712.6712    9.6950  -61.8040   35.5029    1.8860    0.3327    2.2770 
1712.8236    9.8440  -33.9483   38.8855    2.1310    0.3186    2.3190 
1712.9760   10.0210  -27.0531   42.4550    2.3870    0.3253    2.3630 
1713.1284   10.2150  -25.2620   47.3256    2.6460    0.3922    2.3530 
1713.2808   10.4090  -23.5400   51.0771    2.8820    0.4388    2.3050 
1713.4332   10.6840  -22.8030   54.7766    3.1030    0.4547    2.2690 
1713.5856   11.0840  -22.1250   59.2692    3.2450    0.4586    2.2320 
1713.7380   11.1080  -21.6060   68.0206    3.3740    0.4565    2.3160 
1713.8904   11.1320  -21.1990   73.2352    3.4670    0.4284    2.2780 
1714.0428   10.7670  -20.6250   76.5617    3.5400    0.4070    2.2600 
1714.1952   10.7610  -19.5150   79.9241    3.6130    0.3763    2.3430 
1714.3476   10.8290  -18.7980   76.9967    3.6960    0.3518    2.4560 
1714.5000   10.8970  -18.4590   74.0953    3.8150    0.3238    2.4710 
1714.6524   10.9690  -17.8680   72.0718    3.9340    0.2883    2.4740 
1714.8048   11.0350  -17.1260   70.3993    4.0790    0.2866    2.4770 
1714.9572   11.1000  -16.8500   70.7208    4.2480    0.2840    2.4580 
1715.1096   11.1660  -16.8250   68.6023    4.3370    0.2922    2.4010 
1715.2620   11.2240  -17.0100   62.4378    4.3880    0.3275    2.3390 
1715.4144   11.2830  -16.7720   52.6084    4.3990    0.3831    2.2480 
1715.5668   11.3360  -16.6530   40.5639    4.3710    0.3297    2.1910 
1715.7192   11.3900  -16.5340   28.6716    4.2990    0.2782    2.2260 
1715.8716   11.4380  -16.4150   25.8940    4.2230    0.2525    2.4740 
