~VERSION INFORMATION
 VERS.                 2.0:   CWLS LOG ASCII STANDARD - VERSION 2.0
 WRAP.                  NO:   SINGLE LINE PER DEPTH STEP
 CREA.                 15/04/2025 16:02:59
#CREATED USING IP VERSION 4.5.2019.2902 BY ASUS ON 15/04/2025 16:02:59
~WELL INFORMATION
#MNEM.UNIT       DATA                          DESCRIPTION MNEMONIC
#---------      ---------------------------   --------------------------
 STRT    .M         1371.6000                 : START DEPTH
 STOP    .M         1905.0000                 : STOP DEPTH
 STEP    .M         0.1524                    : STEP VALUE
 NULL    .      -999.0000                     : NULL VALUE
 DATE    .      15/04/2025                    : LAS file Creation Date
 WELL   .      ABB-035                                            : Well Name
 COM1   .      Original database: Master Database IP ABAB (Meter) : Well Comment
 COMP   .                                                         : Company
 FLD    .                                                         : Field
 UWI    .      9803035                                            : Unique Well Identifier (UWI)
 LOC    .      TWP        - Range       - Sec                     : Location
 PDAT   .      GR                                                 : Permanent Datum
 LGMEA  .      KB                                                 : Log Measured from
 DRMEA  .      KB                                                 : Drill Measured From
 KB     .      17.34                                              : KB Elevation
 DF     .      -999.2500                                          : DF Elevation
 GL     .      -999.2500                                          : GL Elevation
 RWS    .      -999                                               : Def_Rw
 WST    .      -999                                               : Def_Rwt
 PROV   .                                                         : Province
 SRVC   .      SCH                                                : Contractor
 GDAT   .      WGS 84                                             : Geodatum
 LONG   .      0                                                  : Longitude
 LATI   .      0                                                  : Latitude
 COORDIN.                                                         : Grid System
 XCOORD .                                                         : X or East-West Coordinate
 YCOORD .                                                         : Y or North-South Coordinate
~CURVE INFORMATION
#MNEM              UNIT       API CODE   Curve Type Comments
#----------  --------------- ----------  ---------- -----------
 DEPTH      .M                         : Depth       
 CALI       .in                        : Caliper     CALI
 SP         .mV                        : SP          SP
 GR         .gAPI                      : GammaRay    GR
 RT         .ohm.m                     : DeepRes     ILD
 NPHI       .ft3/ft3                   : Neutron     CNL
 RHOB       .g/cm3                     : Density     DENS
~A  DEPTH    CALI       SP        GR        RT       NPHI      RHOB   
# ...
1647.1392   13.6880  -17.1701   68.7013    1.6800    0.5976    2.0900 
1647.2916   14.0150  -20.7610   70.1287    1.6890    0.5976    2.0830 
1647.4440   14.3460  -20.6820   72.1260    1.6990    0.5978    2.0650 
1647.5964   13.9980  -20.6030   73.3534    1.7080    0.5976    2.0000 
1647.7488   13.0570  -20.5690   74.5308    1.7690    0.5400    1.9990 
1647.9012   11.3310  -19.7520   76.1482    1.8550    0.4825    1.9990 
1648.0536   10.5760  -19.3730   77.1656    1.9480    0.4492    1.9990 
1648.2060    9.9400  -19.4930   77.3529    2.0490    0.4291    1.9980 
1648.3584    9.7380  -19.6140   72.0204    2.1490    0.3901    2.1320 
1648.5108    9.6770  -19.9330   66.4978    2.2500    0.3421    2.3680 
1648.6632    9.2600  -20.2030   60.5852    2.3500    0.3115    2.4050 
1648.8156    9.1920  -18.9270   57.5827    2.4270    0.2626    2.4760 
1648.9680    9.2820  -17.5030   60.4800    2.5040    0.2558    2.5830 
1649.1204    9.4290  -16.0430   70.0173    2.4920    0.3102    2.5950 
1649.2728    9.2500  -15.2840   80.9446    2.4800    0.3203    2.5410 
1649.4252    9.2940  -15.9500   86.1321    2.4540    0.3178    2.4640 
1649.5776    9.4140  -16.1860   90.1695    2.4010    0.3278    2.4840 
1649.7300    9.4160  -16.4230   94.3469    2.3470    0.3391    2.4690 
1649.8824    9.3260  -16.3320   98.8443    2.3460    0.3447    2.4130 
1650.0348    9.2810  -16.1960   99.4217    2.3450    0.3482    2.3790 
1650.1872    9.2660  -16.1540   99.4391    2.3690    0.3658    2.3500 
1650.3396    9.2500  -16.3240   99.4664    2.3940    0.3867    2.3260 
1650.4920    9.2470  -16.1100   99.4938    2.4150    0.3986    2.3160 
1650.6444    9.2680  -15.3570   99.5212    2.4310    0.4110    2.3050 
1650.7968    9.2880  -14.6050   99.5486    2.4530    0.4232    2.3080 
1650.9492    9.4100  -13.9550   99.5760    2.4860    0.4330    2.3200 
1651.1016    9.5780  -13.4430   99.6034    2.5200    0.4488    2.3060 
1651.2540    9.8040  -12.9320   99.6308    2.5220    0.4874    2.2540 
1651.4064    9.5990  -14.0480   99.6582    2.5250    0.4713    2.2350 
1651.5588    9.4530  -14.8930   99.6856    2.5280    0.4431    2.2430 
1651.7112    9.3850  -15.4690   99.7130    2.5300    0.4333    2.2390 
1651.8636    9.3460  -15.6050   99.7303    2.5330    0.4365    2.2350 
1652.0160    9.4280  -15.7410   99.7577    2.5360    0.4433    2.2540 
1652.1684    9.5420  -16.0460   99.7851    2.5970    0.4431    2.2370 
1652.3208    9.6370  -16.4180   99.8125    2.6680    0.4372    2.2100 
1652.4732    9.2990  -16.6250   99.8399    2.7400    0.4269    2.1930 
1652.6256    9.2110  -16.6800   99.8673    2.8210    0.4233    2.1880 
1652.7780    9.1940  -16.5230   99.8947    2.9020    0.4066    2.1580 
1652.9304    9.2120  -16.2740   99.9221    2.9290    0.3820    2.1180 
1653.0828    9.2310  -15.8650   99.9495    2.9440    0.3591    2.1260 
1653.2352    9.2820  -15.3750   99.9769    2.9330    0.3654    2.1520 
1653.3876    9.3580  -15.4770   99.9942    2.8320    0.3780    2.1850 
1653.5400    9.5050  -15.5790  100.0216    2.7090    0.4109    2.2070 
1653.6924    9.7810  -16.9220   96.8290    2.5680    0.4851    2.2140 
1653.8448   11.5300  -17.9440   93.0264    2.4500    0.4975    2.1920 
1653.9972   12.2300  -18.7910   89.6838    2.3420    0.5020    2.1260 
1654.1496   12.0110  -19.1990   89.6812    2.3080    0.5014    2.0490 
1654.3020   10.7360  -19.6070   91.1786    2.2750    0.4982    2.0170 
1654.4544    9.6020  -18.9780   95.1359    2.2530    0.4159    2.0240 
1654.6068    9.4650  -18.2620   93.9734    2.2640    0.3877    2.1330 
1654.7592    9.4950  -17.5460   96.6207    2.2740    0.3711    2.3000 
1654.9116    9.5500  -16.9330  100.1081    2.2710    0.3696    2.3420 
1655.0640    9.6060  -16.3490   99.9855    2.2300    0.3774    2.3350 
1655.2164    9.7080  -16.2250   96.6829    2.1900    0.3814    2.3230 
1655.3688    9.8100  -16.1020   93.4603    2.0990    0.4192    2.3220 
1655.5212    9.9920  -16.2820   89.6976    2.0040    0.4309    2.3070 
1655.6736   10.3860  -16.6230   81.4651    1.9080    0.4863    2.2520 
1655.8260   10.4430  -17.1190   76.3726    1.8910    0.4951    2.1500 
1655.9784   11.5190  -17.7030   76.1399    1.8790    0.4992    2.0990 
1656.1308   12.1460  -18.2990   75.8973    1.8840    0.5223    2.0300 
1656.2832   12.6800  -18.9120   76.8046    1.9370    0.4949    2.0010 
1656.4356   13.1240  -19.4370   80.5220    1.9910    0.4632    2.0460 
1656.5880   11.5090  -19.9480   82.2293    2.0960    0.4346    2.2000 
1656.7404   10.8820  -19.9600   79.5468    2.2070    0.4058    2.2290 
1656.8928   10.3790  -19.8800   76.8442    2.3170    0.3837    2.2280 
1657.0452   10.1360  -18.9720   74.2716    2.4110    0.3617    2.2380 
1657.1976   10.1180  -17.8900   73.4890    2.4990    0.3515    2.2570 
1657.3500   10.7060  -17.2820   72.6064    2.5330    0.4276    2.3190 
1657.5024   11.1700  -17.0960   71.7838    2.5670    0.4738    2.3250 
1657.6548   11.6240  -17.4090   71.2812    2.5670    0.4839    2.3340 
1657.8072   12.0410  -17.9810   74.6585    2.5290    0.5034    2.2910 
1657.9596   12.5040  -19.0400   78.2359    2.4490    0.5141    2.3060 
1658.1120   12.9080  -20.1750   78.6033    2.3990    0.5129    2.3290 
1658.2644   12.5470  -19.8570   75.7007    2.3780    0.5249    2.2890 
1658.4168   12.2670  -19.2890   72.3182    2.3700    0.5345    2.1970 
1658.5692   11.9260  -18.7220   76.4955    2.3630    0.5558    2.1380 
1658.7216   10.9050  -18.1640   83.0028    2.3550    0.5331    2.0970 
1658.8740   10.2750  -17.6720   81.8203    2.3480    0.5170    2.0430 
1659.0264   11.4470  -17.4670   79.5677    2.3550    0.5263    2.0150 
1659.1788   11.3730  -17.8050   76.3750    2.3680    0.5393    2.0120 
1659.3312   11.3260  -18.4140   72.4225    2.3810    0.4917    2.0080 
1659.4836   11.3120  -18.7280   77.3398    2.3950    0.4552    2.0050 
1659.6360   11.0640  -18.9080   85.6871    2.4080    0.4346    2.0010 
1659.7884    9.9790  -18.3240   83.8946    2.3780    0.4187    2.2580 
1659.9408   10.0220  -17.7410   84.1820    2.3470    0.3973    2.3020 
1660.0932   10.7320  -17.6020   85.1194    2.3150    0.4137    2.3460 
1660.2456   11.1630  -17.4880   84.1868    2.3150    0.4384    2.3900 
1660.3980   11.0080  -17.4030   81.0442    2.3140    0.4390    2.3430 
1660.5504   10.8230  -17.5390   81.2117    2.3140    0.4181    2.2800 
1660.7028   10.7170  -17.6760   85.4489    2.3160    0.4145    2.2900 
1660.8552   10.0770  -17.4720   90.6063    2.3880    0.4109    2.3030 
1661.0076    9.6590  -17.1580   91.8337    2.4610    0.3373    2.3220 
1661.1600    9.4910  -16.7450   93.0611    2.5330    0.3141    2.3440 
1661.3124    9.3570  -16.2900   93.9685    2.6100    0.3066    2.4470 
1661.4648    9.1790  -15.8360   95.4659    2.7300    0.2864    2.4990 
1661.6172    9.0900  -15.4640   94.5533    2.8490    0.2714    2.4790 
1661.7696    9.0290  -15.1040   90.9307    2.9680    0.2614    2.4560 
1661.9220    8.9870  -14.8430   87.1881    3.0880    0.2554    2.4580 
1662.0744    8.9680  -14.9790   83.8756    3.2150    0.2672    2.4420 
1662.2268    8.9490  -15.1150   88.0728    3.3450    0.2816    2.4300 
1662.3792    8.9480  -15.1190   90.6002    3.4240    0.2993    2.4190 
1662.5316    8.9320  -15.1220   95.1176    3.4740    0.3434    2.4000 
1662.6840    8.9170  -14.9860  100.4749    3.4870    0.3896    2.3550 
1662.8364    8.9090  -14.8500  100.2223    3.4540    0.4358    2.2860 
1662.9888    8.9010  -14.9550   95.6803    3.4140    0.4456    2.2070 
1663.1412    8.9270  -15.1730   79.9551    3.4360    0.3838    2.0330 
1663.2936    9.0180  -16.3570   67.3600    3.5370    0.3221    2.0000 
1663.4460    9.0340  -17.8610   63.7347    3.6380    0.2604    2.0000 
1663.5984    8.9240  -19.5070   67.0992    3.7930    0.2172    2.1960 
1663.7508    8.7490  -20.5270   62.6440    3.9820    0.2105    2.4290 
1663.9032    8.6090  -22.4960   54.9387    4.1720    0.1980    2.4300 
1664.0556    8.4340  -25.7900   48.0816    4.6550    0.2038    2.4370 
1664.2080    8.2200  -29.9970   45.4931    5.1690    0.2083    2.4270 
