~VERSION INFORMATION
 VERS.                 2.0:   CWLS LOG ASCII STANDARD - VERSION 2.0
 WRAP.                  NO:   SINGLE LINE PER DEPTH STEP
 CREA.                 15/04/2025 16:02:59
#CREATED USING IP VERSION 4.5.2019.2902 BY ASUS ON 15/04/2025 16:02:59
~WELL INFORMATION
#MNEM.UNIT       DATA                          DESCRIPTION MNEMONIC
#---------      ---------------------------   --------------------------
 STRT    .M         1371.6000                 : START DEPTH
 STOP    .M         1905.0000                 : STOP DEPTH
 STEP    .M         0.1524                    : STEP VALUE
 NULL    .      -999.0000                     : NULL VALUE
 DATE    .      15/04/2025                    : LAS file Creation Date
 WELL   .      ABB-035                                            : Well Name
 COM1   .      Original database: Master Database IP ABAB (Meter) : Well Comment
 COMP   .                                                         : Company
 FLD    .                                                         : Field
 UWI    .      9803035                                            : Unique Well Identifier (UWI)
 LOC    .      TWP        - Range       - Sec                     : Location
 PDAT   .      GR                                                 : Permanent Datum
 LGMEA  .      KB                                                 : Log Measured from
 DRMEA  .      KB                                                 : Drill Measured From
 KB     .      17.34                                              : KB Elevation
 DF     .      -999.2500                                          : DF Elevation
 GL     .      -999.2500                                          : GL Elevation
 RWS    .      -999                                               : Def_Rw
 WST    .      -999                                               : Def_Rwt
 PROV   .                                                         : Province
 SRVC   .      SCH                                                : Contractor
 GDAT   .      WGS 84                                             : Geodatum
 LONG   .      0                                                  : Longitude
 LATI   .      0                                                  : Latitude
 COORDIN.                                                         : Grid System
 XCOORD .                                                         : X or East-West Coordinate
 YCOORD .                                                         : Y or North-South Coordinate
~CURVE INFORMATION
#MNEM              UNIT       API CODE   Curve Type Comments
#----------  --------------- ----------  ---------- -----------
 DEPTH      .M                         : Depth       
 CALI       .in                        : Caliper     CALI
 SP         .mV                        : SP          SP
 GR         .gAPI                      : GammaRay    GR
 RT         .ohm.m                     : DeepRes     ILD
 NPHI       .ft3/ft3                   : Neutron     CNL
 RHOB       .g/cm3                     : Density     DENS
~A  DEPTH    CALI       SP        GR        RT       NPHI      RHOB   
# ...
1509.3696    9.0480 -110.6260   -9.8980    1.9050    0.2659    2.2700 
1509.5220    9.1100 -110.4580   -9.1456    1.8790    0.2577    2.2690 
1509.6744    9.2480 -110.3210   -5.6762    1.8520    0.2520    2.2670 
1509.8268    9.3520 -110.2140   -1.3708    1.8240    0.2529    2.2760 
1509.9792    9.4080 -110.1080    1.1675    1.8040    0.2573    2.2850 
1510.1316    9.4590 -109.9060    0.9129    1.7910    0.2844    2.2800 
1510.2840    9.5090 -109.6170    0.4063    1.7780    0.2898    2.2790 
1510.4364    9.5550 -109.2570    0.7997    1.7660    0.2938    2.2700 
1510.5888    9.6010 -108.7520    2.7341    1.7530    0.2978    2.2610 
1510.7412    9.6510 -108.4010    1.1535    1.7650    0.3011    2.2590 
1510.8936    9.7020 -108.2460   -0.9611    1.8090    0.2933    2.2540 
1511.0460    9.7510 -107.8150   -3.4777    1.8710    0.2838    2.2580 
1511.1984    9.7980 -106.9730   -7.8573    1.9920    0.2734    2.2790 
1511.3508    9.8440 -105.8700  -11.2819    2.1130    0.2680    2.3270 
1511.5032    9.8990 -104.5220  -12.7966    2.2470    0.2631    2.3390 
1511.6556    9.9530 -103.3280  -13.1652    2.3820    0.2651    2.3340 
1511.8080   10.0220 -102.2240  -12.2548    2.5930    0.2670    2.3230 
1511.9604   10.0910 -100.8120   -9.7624    2.8040    0.2736    2.3350 
1512.1128   10.2000  -99.3680  -12.0880    3.0150    0.2747    2.3290 
1512.2652   10.3240  -97.8010  -13.9126    3.2030    0.2656    2.3360 
1512.4176   10.4430  -96.2800  -14.0412    3.3540    0.2642    2.3210 
1512.5700   10.5630  -95.3600  -14.3738    3.4940    0.2589    2.3300 
1512.7224   10.6670  -94.0690  -15.1314    3.5520    0.2550    2.3520 
1512.8748   10.7710  -92.2500  -14.8911    3.6010    0.2526    2.3690 
1513.0272   10.8540  -89.7960  -13.1907    3.6490    0.2471    2.3750 
1513.1796   10.9370  -87.1710  -11.0573    3.6970    0.2420    2.3690 
1513.3320   11.0140  -84.1390   -8.1669    3.7030    0.2388    2.3750 
1513.4844   11.0780  -80.2810   -4.5875    3.7080    0.2387    2.3930 
1513.6368   11.1410  -75.7240   -1.4811    3.7140    0.2436    2.3940 
1513.7892   11.1860  -69.7750   -3.7527    3.6240    0.2473    2.3840 
1513.9416   11.2310  -65.4290   -8.7203    3.5180    0.2442    2.3830 
1514.0940   11.2770  -65.5970  -12.0919    3.4290    0.2366    2.3860 
1514.2464   11.3220  -70.6800  -12.9286    3.3280    0.2505    2.3730 
1514.3988   11.3590  -78.6530  -12.4992    3.2270    0.2530    2.3690 
1514.5512   11.3960  -82.8930  -12.7278    3.1650    0.2573    2.3640 
1514.7036   11.4340  -85.6950  -15.2264    3.1460    0.2617    2.3540 
1514.8560   11.4710  -87.5720  -17.7420    3.1270    0.2638    2.3530 
1515.0084   11.5040  -89.2900  -17.9586    3.1140    0.2629    2.3620 
1515.1608   11.5360  -90.3020  -17.0832    3.1290    0.2624    2.3680 
1515.3132   11.5690  -91.0450  -16.6338    3.1500    0.2628    2.3730 
1515.4656   11.6040  -91.1640  -15.2084    3.2010    0.2630    2.3840 
1515.6180   11.6400  -91.2830  -14.5780    3.2510    0.2603    2.3900 
1515.7704   11.6760  -90.9020  -13.9466    3.3280    0.2550    2.3940 
1515.9228   11.7240  -90.2280  -14.8333    3.4200    0.2505    2.3890 
1516.0752   11.7710  -89.5530  -15.2639    3.4510    0.2507    2.3850 
1516.2276   11.8190  -88.6560  -14.4285    3.4690    0.2518    2.3900 
1516.3800   11.8750  -87.7050  -13.1081    3.4830    0.2530    2.3930 
1516.5324   11.9300  -86.6080  -13.0567    3.4690    0.2523    2.3880 
1516.6848   11.9850  -84.5850  -13.4363    3.3910    0.2508    2.3990 
1516.8372   12.0410  -82.4790  -12.7809    3.2930    0.2504    2.4080 
1516.9896   12.0980  -79.5890  -11.8665    3.1640    0.2510    2.4080 
1517.1420   12.1430  -76.7000   -4.6401    3.0170    0.2629    2.4020 
1517.2944   12.1880  -74.4100    0.6002    2.8480    0.2709    2.3870 
1517.4468   12.2230  -73.4960   -3.8224    2.6880    0.2742    2.3720 
1517.5992   12.2580  -74.2480   -9.5970    2.5360    0.2793    2.3420 
1517.7516   12.2930  -77.1180  -11.7816    2.4120    0.2858    2.3330 
1517.9040   12.3140  -79.5870  -14.0072    2.3050    0.2909    2.3240 
1518.0564   12.3340  -81.3710  -12.9258    2.1980    0.2962    2.3040 
1518.2088   12.3540  -83.0570  -13.4014    2.1030    0.3045    2.2920 
1518.3612   12.3670  -83.7880  -14.5340    2.0100    0.3204    2.2950 
1518.5136   12.3790  -84.5100  -15.6046    1.9460    0.3331    2.2990 
1518.6660   12.3920  -83.9740  -15.6622    1.8830    0.3261    2.3030 
1518.8184   12.4040  -83.1080  -14.0409    1.8350    0.3176    2.3050 
1518.9708   12.4110  -82.2300  -11.8265    1.8080    0.3137    2.3050 
1519.1232   12.4170  -81.3440  -10.4501    1.7920    0.3150    2.3130 
1519.2756   12.4250  -80.4630  -11.0327    1.7760    0.3207    2.3180 
1519.4280   12.4320  -79.6200  -12.5463    1.7610    0.3292    2.3230 
1519.5804   12.4300  -78.9150  -12.2999    1.7460    0.3269    2.3290 
1519.7328   12.4280  -78.7590  -10.6425    1.7550    0.3261    2.3320 
1519.8852   12.4250  -78.5040   -8.5551    1.7640    0.3286    2.3330 
1520.0376   12.4160  -77.7170   -6.2237    1.7730    0.3337    2.3300 
1520.1900   12.4060  -76.9300   -3.6283    1.7880    0.3322    2.3190 
1520.3424   12.3970  -75.6650   -1.2140    1.8120    0.3299    2.3160 
1520.4948   12.3820  -73.4440    0.0664    1.8360    0.3266    2.3160 
1520.6472   12.3660  -71.5790    0.1028    1.8720    0.3113    2.3310 
1520.7996   12.3580  -69.8250   -1.0318    1.9130    0.2999    2.3520 
1520.9520   12.3490  -68.3750   -1.4924    1.9420    0.2935    2.3590 
1521.1044   12.3390  -67.5170   -1.9530    1.9570    0.3264    2.3680 
1521.2568   12.3300  -67.7410   -3.2346    1.9750    0.3467    2.3520 
1521.4092   12.3190  -66.8250   -4.5322    2.0090    0.3585    2.3460 
1521.5616   12.3070  -66.3780   -3.7578    2.0540    0.3609    2.3320 
1521.7140   12.2960  -65.9300   -4.4074    2.0570    0.3608    2.3250 
1521.8664   12.3040  -67.4600   -6.6931    2.0600    0.3535    2.3160 
1522.0188   12.3130  -68.5000   -8.5067    2.0630    0.3377    2.3180 
1522.1712   12.3210  -68.9480   -7.4053    2.0710    0.3319    2.3140 
1522.3236   12.3280  -68.4950   -4.7919    2.0890    0.3262    2.3240 
1522.4760   12.3540  -66.4410   -3.1155    2.0700    0.3232    2.3380 
1522.6284   12.4010  -63.2490    0.7229    2.0320    0.3256    2.3580 
1522.7808   12.4660  -57.6330    5.9043    1.9860    0.3222    2.3720 
1522.9332   12.5460  -51.5860   11.9917    1.9020    0.3176    2.3820 
1523.0856   12.5630  -46.8340   15.1900    1.8160    0.3378    2.3740 
1523.2380   12.5370  -41.4340   17.0034    1.7240    0.3493    2.3470 
1523.3904   12.3440  -38.3440   12.5488    1.6520    0.3517    2.3210 
1523.5428   12.1060  -39.6280    4.6732    1.5970    0.3551    2.3120 
1523.6952   12.0000  -48.4140   -0.6194    1.5310    0.3720    2.3240 
1523.8476   11.9210  -58.4420   -2.5180    1.5120    0.3889    2.3130 
1524.0000   11.8480  -65.4810   -1.7656    1.4920    0.3800    2.2900 
1524.1524   11.8020  -71.4900   -0.7122    1.5350    0.3701    2.2770 
1524.3048   11.7660  -73.7080    1.5782    1.6160    0.3612    2.2700 
1524.4572   11.7290  -74.0430    7.5796    1.6950    0.3581    2.2880 
1524.6096   11.6920  -73.2340   13.2050    1.7690    0.3592    2.2990 
1524.7620   11.6580  -72.4250   17.6813    1.8350    0.3549    2.3130 
1524.9144   11.6230  -70.2540   17.6697    1.8930    0.3457    2.3460 
1525.0668   11.5890  -68.3770   11.9111    1.9660    0.3460    2.3510 
1525.2192   11.5520  -67.3660    8.2295    2.0840    0.3340    2.3580 
1525.3716   11.5160  -65.2490    6.5479    2.1990    0.3204    2.3660 
1525.5240   11.4800  -62.9150    4.5293    2.3090    0.3120    2.3650 
1525.6764   11.4340  -61.2310    4.5687    2.4650    0.3073    2.3490 
1525.8288   11.3660  -60.5330    5.6951    2.6590    0.2972    2.3380 
1525.9812   11.2990  -64.2210   11.0395    2.9110    0.2870    2.3620 
1526.1336   11.2480  -64.9760   21.1519    3.1630    0.2470    2.3850 
1526.2860   11.2100  -63.4700   34.3942    3.5040    0.2284    2.3990 
1526.4384   11.1730  -60.0760   44.6046    3.8580    0.2157    2.4120 
