~VERSION INFORMATION
 VERS.                 2.0:   CWLS LOG ASCII STANDARD - VERSION 2.0
 WRAP.                  NO:   SINGLE LINE PER DEPTH STEP
 CREA.                 15/04/2025 16:02:59
#CREATED USING IP VERSION 4.5.2019.2902 BY ASUS ON 15/04/2025 16:02:59
~WELL INFORMATION
#MNEM.UNIT       DATA                          DESCRIPTION MNEMONIC
#---------      ---------------------------   --------------------------
 STRT    .M         1371.6000                 : START DEPTH
 STOP    .M         1905.0000                 : STOP DEPTH
 STEP    .M         0.1524                    : STEP VALUE
 NULL    .      -999.0000                     : NULL VALUE
 DATE    .      15/04/2025                    : LAS file Creation Date
 WELL   .      ABB-035                                            : Well Name
 COM1   .      Original database: Master Database IP ABAB (Meter) : Well Comment
 COMP   .                                                         : Company
 FLD    .                                                         : Field
 UWI    .      9803035                                            : Unique Well Identifier (UWI)
 LOC    .      TWP        - Range       - Sec                     : Location
 PDAT   .      GR                                                 : Permanent Datum
 LGMEA  .      KB                                                 : Log Measured from
 DRMEA  .      KB                                                 : Drill Measured From
 KB     .      17.34                                              : KB Elevation
 DF     .      -999.2500                                          : DF Elevation
 GL     .      -999.2500                                          : GL Elevation
 RWS    .      -999                                               : Def_Rw
 WST    .      -999                                               : Def_Rwt
 PROV   .                                                         : Province
 SRVC   .      SCH                                                : Contractor
 GDAT   .      WGS 84                                             : Geodatum
 LONG   .      0                                                  : Longitude
 LATI   .      0                                                  : Latitude
 COORDIN.                                                         : Grid System
 XCOORD .                                                         : X or East-West Coordinate
 YCOORD .                                                         : Y or North-South Coordinate
~CURVE INFORMATION
#MNEM              UNIT       API CODE   Curve Type Comments
#----------  --------------- ----------  ---------- -----------
 DEPTH      .M                         : Depth       
 CALI       .in                        : Caliper     CALI
 SP         .mV                        : SP          SP
 GR         .gAPI                      : GammaRay    GR
 RT         .ohm.m                     : DeepRes     ILD
 NPHI       .ft3/ft3                   : Neutron     CNL
 RHOB       .g/cm3                     : Density     DENS
~A  DEPTH    CALI       SP        GR        RT       NPHI      RHOB   
# ...
1492.1484    8.2800 -108.7340  -12.2971    2.2190    0.2728    2.2370 
1492.3008    8.3050 -108.2280  -11.4037    2.1900    0.2733    2.2280 
1492.4532    8.3300 -108.8620   -8.2893    2.1610    0.2765    2.2310 
1492.6056    8.3690 -110.0180   -4.7229    2.1110    0.2845    2.2280 
1492.7580    8.4080 -110.6430   -3.5175    2.0800    0.2805    2.2270 
1492.9104    8.4470 -110.7170   -4.2551    2.0750    0.2754    2.2460 
1493.0628    8.4700 -110.7900   -5.1377    2.0690    0.2759    2.2750 
1493.2152    8.4930 -110.8630   -5.6513    2.0630    0.2764    2.2660 
1493.3676    8.5160 -110.9360   -5.9059    2.0650    0.2714    2.2410 
1493.5200    8.4820 -111.0100   -7.0485    2.0760    0.2702    2.2300 
1493.6724    8.4480 -111.1410   -8.4482    2.0880    0.2829    2.2440 
1493.8248    8.4070 -111.2960   -9.1388    2.0820    0.2883    2.2480 
1493.9772    8.3650 -111.8260   -8.2154    2.0510    0.2932    2.2460 
1494.1296    8.3680 -112.4480   -7.4740    2.0190    0.2890    2.2620 
1494.2820    8.3710 -112.5230   -7.6026    1.9850    0.2752    2.2900 
1494.4344    8.3730 -112.5970   -7.7832    1.9510    0.2612    2.3120 
1494.5868    8.4100 -112.3340   -8.0018    1.9170    0.2527    2.3260 
1494.7392    8.4470 -111.8670   -8.4724    1.8840    0.2465    2.3410 
1494.8916    8.4730 -111.3630   -9.8210    1.8500    0.2424    2.3450 
1495.0440    8.4990 -110.8230  -12.3366    1.8290    0.2472    2.3270 
1495.1964    8.5130 -110.3180  -11.5093    1.8120    0.2508    2.3180 
1495.3488    8.5270 -110.3310  -10.1229    1.8420    0.2562    2.3290 
1495.5012    8.5410 -110.8560   -8.7095    1.8800    0.2654    2.2900 
1495.6536    8.5450 -111.3480   -7.7291    1.9180    0.2755    2.2700 
1495.8060    8.5500 -111.4600   -7.9217    1.9590    0.2799    2.2470 
1495.9584    8.5540 -111.5730   -8.1893    2.0000    0.2872    2.2160 
1496.1108    8.5590 -111.5920   -8.3289    2.0570    0.2941    2.2030 
1496.2632    8.5630 -111.4480   -8.7785    2.1150    0.2917    2.2130 
1496.4156    8.5680 -111.2770   -8.7262    2.1430    0.2855    2.2310 
1496.5680    8.5650 -110.9650   -7.8558    2.1630    0.2824    2.2470 
1496.7204    8.5620 -110.6800   -6.9854    2.1830    0.2794    2.2760 
1496.8728    8.5590 -110.5790   -6.1130    2.1990    0.2630    2.2870 
1497.0252    8.5560 -110.4770   -3.3666    2.2110    0.2553    2.2840 
1497.1776    8.5500 -110.3760   -2.0132    2.2150    0.2579    2.2830 
1497.3300    8.5450 -110.4850   -1.4398    2.2180    0.2567    2.2930 
1497.4824    8.5390 -110.5970    0.4386    2.2220    0.2491    2.3130 
1497.6348    8.5330 -110.6730    2.8370    2.2020    0.2465    2.3200 
1497.7872    8.5270 -110.5550    1.7954    2.1700    0.2624    2.2820 
1497.9396    8.5180 -110.4360   -1.8862    2.1370    0.2787    2.2690 
1498.0920    8.5090 -110.4500   -5.0188    2.1050    0.2781    2.2740 
1498.2444    8.5000 -110.6060   -5.5255    2.0720    0.2776    2.2870 
1498.3968    8.4910 -110.8150   -4.0511    2.0380    0.2720    2.2910 
1498.5492    8.4820 -111.0910   -2.4777    2.0220    0.2844    2.2590 
1498.7016    8.4760 -111.3670   -1.5103    2.0100    0.3184    2.2090 
1498.8540    8.4700 -111.6420   -0.6749    2.0070    0.3279    2.1860 
1499.0064    8.4640 -111.5330   -1.2805    2.0030    0.3074    2.1870 
1499.1588    8.4580 -111.4210   -1.4911    2.0000    0.2941    2.1990 
1499.3112    8.4520 -111.2310   -1.2787    2.0170    0.2837    2.2170 
1499.4636    8.4460 -110.9620   -0.6513    2.0360    0.2651    2.2410 
1499.6160    8.4520 -110.6920   -0.2740    2.0540    0.2557    2.2880 
1499.7684    8.4580 -110.4580   -0.7796    2.0590    0.2503    2.3000 
1499.9208    8.4640 -110.1940   -0.1002    2.0630    0.2477    2.3010 
1500.0732    8.4690 -110.1230    2.7402    1.9590    0.2484    2.3140 
1500.2256    8.4810 -110.2680    3.5616    1.8660    0.2517    2.2990 
1500.3780    8.4930 -110.3310    4.7610    1.7590    0.2590    2.2780 
1500.5304    8.5050 -110.1630    8.1264    1.6520    0.3005    2.2600 
1500.6828    8.5040 -109.8550   10.1108    1.5840    0.2987    2.2540 
1500.8352    8.5040 -109.3160   10.8362    1.5340    0.2930    2.2510 
1500.9876    8.5040 -108.7680   11.7885    1.5160    0.2909    2.2510 
1501.1400    8.5030 -107.7560    9.6399    1.5050    0.2919    2.2570 
1501.2924    8.5030 -107.2500    6.1343    1.4950    0.2960    2.2500 
1501.4448    8.5030 -107.6180    2.9737    1.4940    0.3021    2.2550 
1501.5972    8.5030 -107.6720    1.1681    1.4920    0.2882    2.2760 
1501.7496    8.5050 -107.7260    2.2945    1.4950    0.2757    2.3100 
1501.9020    8.5070 -107.7810    1.3439    1.5120    0.2830    2.3110 
1502.0544    8.5070 -107.8350   -0.5067    1.5070    0.2972    2.2960 
1502.2068    8.5070 -107.7890    0.1497    1.4440    0.3091    2.2740 
1502.3592    8.5080 -107.5190    0.7751    1.3800    0.3063    2.2820 
1502.5116    8.5080 -107.2500   -1.7415    1.3210    0.2978    2.2920 
1502.6640    8.5280 -107.2000   -3.8782    1.2870    0.2834    2.2960 
1502.8164    8.5470 -107.5220   -5.7948    1.2490    0.2742    2.2770 
1502.9688    8.5660 -107.6260   -7.1764    1.1960    0.2705    2.2630 
1503.1212    8.6040 -107.7300   -7.5150    1.1440    0.2695    2.2550 
1503.2736    8.6420 -107.8350   -5.6686    1.0910    0.2737    2.2490 
1503.4260    8.6800 -107.7430   -0.0862    1.0770    0.3037    2.2370 
1503.5784    8.7190 -107.5990    9.5952    1.0620    0.3061    2.2330 
1503.7308    8.7370 -107.3200   24.8036    1.0480    0.2931    2.2450 
1503.8832    8.7560 -106.8710   41.7579    1.0800    0.2875    2.2650 
1504.0356    8.7480 -106.4220   47.7362    1.1210    0.2780    2.2710 
1504.1880    8.7410 -106.0710   43.4367    1.1470    0.2762    2.2630 
1504.3404    8.7290 -105.7820   37.4751    1.1550    0.2800    2.2540 
1504.4928    8.7180 -105.6690   29.0795    1.1630    0.3186    2.2540 
1504.6452    8.7060 -105.8030   20.0609    1.1720    0.3453    2.2520 
1504.7976    8.6950 -105.8290   13.3003    1.1730    0.3590    2.2260 
1504.9500    8.6750 -105.8540    8.8637    1.1750    0.3649    2.1990 
1505.1024    8.6560 -105.8790    5.5651    1.1860    0.3689    2.1880 
1505.2548    8.6530 -105.9050    4.0055    1.1910    0.3402    2.1860 
1505.4072    8.6560 -105.9300    4.4068    1.1960    0.3365    2.1890 
1505.5596    8.6600 -105.9360    3.3962    1.2010    0.3419    2.1970 
1505.7120    8.6630 -106.1050    3.0886    1.2060    0.3573    2.2070 
1505.8644    8.6660 -106.1520    3.2750    1.2030    0.3688    2.2100 
1506.0168    8.6690 -106.2000    3.3064    1.1940    0.3590    2.2020 
1506.1692    8.6720 -106.2480    1.6248    1.1840    0.3491    2.2060 
1506.3216    8.6790 -105.8750   -0.2928    1.1750    0.3373    2.2240 
1506.4740    8.6850 -105.4090   -1.1194    1.1830    0.3316    2.2270 
1506.6264    8.7840 -105.2050   -1.0440    1.1910    0.3158    2.2360 
1506.7788    8.9180 -105.0860   -1.5776    1.1990    0.3072    2.2470 
1506.9312    8.9810 -104.9900   -5.4222    1.2110    0.3049    2.2560 
1507.0836    9.0260 -105.1350  -10.1119    1.2380    0.2924    2.2550 
1507.2360    9.0710 -105.2790  -12.0765    1.2980    0.2798    2.2580 
1507.3884    9.0900 -105.7110  -13.8421    1.3700    0.2724    2.2600 
1507.5408    9.0940 -106.1770  -14.4677    1.4720    0.2630    2.2730 
1507.6932    9.0980 -106.6770  -13.5223    1.5910    0.2520    2.3020 
1507.8456    9.1020 -107.1830  -12.3429    1.7100    0.2322    2.3300 
1507.9980    9.0930 -107.6880  -11.7795    1.8880    0.2159    2.3400 
1508.1504    9.0840 -108.1730  -11.7971    1.9840    0.2122    2.3310 
1508.3028    9.0550 -108.6490  -11.8927    2.0140    0.2141    2.2980 
1508.4552    9.0260 -109.1130  -11.7924    2.0450    0.2291    2.2780 
1508.6076    9.0230 -109.3150  -11.6910    2.0550    0.2418    2.2780 
1508.7600    9.0200 -109.4220  -10.9606    2.0330    0.2434    2.2910 
1508.9124    9.0260 -109.8850   -9.0992    2.0120    0.2666    2.2810 
1509.0648    9.0310 -110.2580   -9.2838    1.9740    0.2711    2.2710 
1509.2172    9.0320 -110.5270  -10.6514    1.9130    0.2702    2.2700 
