~VERSION INFORMATION
 VERS.                 2.0:   CWLS LOG ASCII STANDARD - VERSION 2.0
 WRAP.                  NO:   SINGLE LINE PER DEPTH STEP
 CREA.                 15/04/2025 16:02:59
#CREATED USING IP VERSION 4.5.2019.2902 BY ASUS ON 15/04/2025 16:02:59
~WELL INFORMATION
#MNEM.UNIT       DATA                          DESCRIPTION MNEMONIC
#---------      ---------------------------   --------------------------
 STRT    .M         1371.6000                 : START DEPTH
 STOP    .M         1905.0000                 : STOP DEPTH
 STEP    .M         0.1524                    : STEP VALUE
 NULL    .      -999.0000                     : NULL VALUE
 DATE    .      15/04/2025                    : LAS file Creation Date
 WELL   .      ABB-035                                            : Well Name
 COM1   .      Original database: Master Database IP ABAB (Meter) : Well Comment
 COMP   .                                                         : Company
 FLD    .                                                         : Field
 UWI    .      9803035                                            : Unique Well Identifier (UWI)
 LOC    .      TWP        - Range       - Sec                     : Location
 PDAT   .      GR                                                 : Permanent Datum
 LGMEA  .      KB                                                 : Log Measured from
 DRMEA  .      KB                                                 : Drill Measured From
 KB     .      17.34                                              : KB Elevation
 DF     .      -999.2500                                          : DF Elevation
 GL     .      -999.2500                                          : GL Elevation
 RWS    .      -999                                               : Def_Rw
 WST    .      -999                                               : Def_Rwt
 PROV   .                                                         : Province
 SRVC   .      SCH                                                : Contractor
 GDAT   .      WGS 84                                             : Geodatum
 LONG   .      0                                                  : Longitude
 LATI   .      0                                                  : Latitude
 COORDIN.                                                         : Grid System
 XCOORD .                                                         : X or East-West Coordinate
 YCOORD .                                                         : Y or North-South Coordinate
~CURVE INFORMATION
#MNEM              UNIT       API CODE   Curve Type Comments
#----------  --------------- ----------  ---------- -----------
 DEPTH      .M                         : Depth       
 CALI       .in                        : Caliper     CALI
 SP         .mV                        : SP          SP
 GR         .gAPI                      : GammaRay    GR
 RT         .ohm.m                     : DeepRes     ILD
 NPHI       .ft3/ft3                   : Neutron     CNL
 RHOB       .g/cm3                     : Density     DENS
~A  DEPTH    CALI       SP        GR        RT       NPHI      RHOB   
# ...
1612.6968   11.2850  -24.7730   40.2712    3.4080    0.2413    2.4040 
1612.8492   11.2900  -25.3240   40.7166    3.3550    0.2462    2.3970 
1613.0016   11.2480  -25.5510   44.3330    3.3220    0.2478    2.3890 
1613.1540   11.2170  -25.4120   48.4114    3.2880    0.2496    2.3750 
1613.3064   11.0980  -25.0070   47.8848    3.2590    0.2660    2.3810 
1613.4588   11.1090  -24.4680   46.2051    3.2430    0.2584    2.3880 
1613.6112   11.1190  -23.9280   46.7845    3.2460    0.2473    2.3970 
1613.7636   11.1230  -23.9530   49.2539    3.2770    0.2404    2.4190 
1613.9160   11.1230  -24.2900   52.2703    3.3220    0.2336    2.4380 
1614.0684   11.1160  -24.0660   50.8777    3.3890    0.2272    2.4590 
1614.2208   11.1050  -23.6620   46.8961    3.4540    0.2145    2.4760 
1614.3732   11.0850  -23.7090   42.5675    3.4290    0.2021    2.4790 
1614.5256   11.0650  -24.4450   38.5980    3.4040    0.1969    2.4810 
1614.6780   11.0300  -25.2680   42.4802    3.3740    0.1946    2.4870 
1614.8304   10.9940  -25.7600   48.3446    3.3240    0.2035    2.4940 
1614.9828   10.9410  -25.9630   55.0720    3.2780    0.2191    2.4880 
1615.1352   10.8780  -24.5780   57.6194    3.2370    0.2254    2.4770 
1615.2876   10.8190  -23.1770   60.1467    3.1990    0.2294    2.4580 
1615.4400   10.7680  -21.1870   54.4142    3.1810    0.2333    2.4550 
1615.5924   10.7170  -20.0880   48.0936    3.1630    0.2367    2.4480 
1615.7448   10.6380  -20.5890   41.1060    3.1440    0.2273    2.4570 
1615.8972   10.5060  -22.1650   32.8655    3.1480    0.1974    2.4650 
1616.0496   10.3820  -24.1910   34.4938    3.1630    0.1790    2.4550 
1616.2020   10.3140  -24.8060   37.1442    3.1650    0.1819    2.4390 
1616.3544   10.2460  -25.2820   40.3835    3.1670    0.1902    2.4330 
1616.5068   10.1990  -25.2580   44.8529    3.1700    0.1971    2.4320 
1616.6592   10.1430  -23.6040   50.7053    3.1150    0.2039    2.4410 
1616.8116   10.0640  -22.3110   54.1507    3.0340    0.2103    2.4640 
1616.9640    9.9430  -21.3760   57.2681    2.9910    0.2251    2.4800 
1617.1164    9.8560  -21.0120   59.1554    2.9480    0.2294    2.4660 
1617.2688    9.8350  -21.3230   54.6729    2.9370    0.2336    2.4700 
1617.4212    9.7830  -21.4150   50.1923    2.9250    0.2484    2.4750 
1617.5736    9.6790  -21.5060   44.1677    2.9080    0.2524    2.4410 
1617.7260    9.4100  -22.3800   41.3730    2.8620    0.2322    2.4120 
1617.8784    9.2820  -23.8240   39.2904    2.8210    0.2223    2.4250 
1618.0308    9.2030  -25.4240   35.4468    2.7240    0.2168    2.4460 
1618.1832    9.1230  -27.9520   28.7082    2.6600    0.2129    2.4520 
1618.3356    9.0450  -32.4120   24.3957    2.6310    0.1993    2.4050 
1618.4880    8.9410  -38.6140   26.2681    2.6030    0.1867    2.4220 
1618.6404    8.8470  -47.0700   33.4735    2.6010    0.1875    2.4280 
1618.7928    8.9330  -52.9529   46.1498    2.5990    0.1937    2.4350 
1618.9452    9.0210  -47.7059   58.9841    2.6350    0.2053    2.4480 
1619.0976    9.0560  -37.4000   61.6915    2.7360    0.2145    2.4640 
1619.2500    9.0910  -30.2060   57.0489    2.8370    0.2121    2.4480 
1619.4024    9.1250  -25.9330   53.3063    2.9240    0.2046    2.4370 
1619.5548    9.1310  -24.1350   49.6157    3.0030    0.1930    2.4380 
1619.7072    9.1370  -23.9980   49.0841    3.0930    0.1836    2.4450 
1619.8596    9.1430  -24.9530   52.9185    3.1460    0.1787    2.4410 
1620.0120    9.1460  -25.4590   54.9759    3.1930    0.1808    2.4370 
1620.1644    9.1490  -25.4340   54.1633    3.1820    0.1829    2.4370 
1620.3168    9.1510  -25.0970   57.1407    3.1280    0.1850    2.4430 
1620.4692    9.1550  -24.5090   62.0881    3.0450    0.1916    2.4480 
1620.6216    9.1580  -23.8350   64.2155    2.9510    0.1964    2.4510 
1620.7740    9.1620  -22.4630   65.5329    2.8550    0.2067    2.4670 
1620.9264    9.1750  -20.9710   71.6302    2.7400    0.2212    2.4730 
1621.0788    9.1880  -19.4800   77.0376    2.6240    0.2441    2.4500 
1621.2312    9.2340  -18.6520   80.9550    2.4900    0.2669    2.4190 
1621.3836    9.3200  -17.9290   84.1824    2.3550    0.2897    2.4080 
1621.5360    9.5120  -17.8070   83.8098    2.2570    0.3026    2.4070 
1621.6884    9.8980  -17.6850   82.9672    2.1530    0.3711    2.4320 
1621.8408   10.4120  -18.0250   81.7146    2.1380    0.3954    2.4140 
1621.9932   10.4390  -18.5760   79.1620    2.1230    0.4050    2.3680 
1622.1456   10.3390  -18.8790   77.2694    2.1120    0.4088    2.3130 
1622.2980   10.2010  -19.1490   82.5567    2.1000    0.3869    2.3330 
1622.4504    9.9810  -19.0500   88.4140    2.0890    0.3594    2.3990 
1622.6028    9.6670  -18.6160   87.9015    2.0750    0.3389    2.4070 
1622.7552   10.1380  -18.2560   86.8089    2.0620    0.3534    2.4070 
1622.9076   10.5210  -18.0540   83.4663    2.0160    0.4068    2.4380 
1623.0600   11.1460  -18.4360   77.5937    1.9650    0.4154    2.4020 
1623.2124   11.5440  -19.2940   76.3711    1.9250    0.4216    2.3660 
1623.3648   11.6040  -20.3040   78.1585    1.8840    0.4311    2.3190 
1623.5172   11.7160  -21.6050   80.3659    1.8590    0.4406    2.2890 
1623.6696   12.0680  -22.7690   80.5132    1.8420    0.4526    2.3190 
1623.8220   12.1980  -23.6670   77.6906    1.7370    0.4627    2.2890 
1623.9744   12.1790  -23.6110   75.4180    1.6370    0.4544    2.2420 
1624.1268   12.1590  -23.4760   72.3954    1.6030    0.4435    2.2390 
1624.2792   12.4750  -23.5050   69.6428    1.5790    0.4388    2.2110 
1624.4316   13.0320  -23.6610   68.6702    1.5650    0.4443    2.1710 
1624.5840   13.2090  -24.2620   68.9676    1.5610    0.4516    2.0920 
1624.7364   12.6950  -24.5750   70.9050    1.5570    0.4638    2.0030 
1624.8888   12.7300  -24.3700   68.8624    1.5530    0.5355    2.0020 
1625.0412   12.8280  -23.2140   68.0198    1.5480    0.5717    2.0010 
1625.1936   12.7340  -22.0590   69.3872    1.5350    0.5879    2.0000 
1625.3460   11.9350  -21.9400   68.6345    1.5230    0.5954    1.9990 
1625.4984   12.1410  -22.0850   68.7119    1.5100    0.5987    1.9980 
1625.6508   12.1320  -21.8650   68.8293    1.4970    0.5923    2.0560 
1625.8032   12.6910  -21.3980   68.4767    1.4960    0.5486    2.1150 
1625.9556   13.5980  -21.0570   66.8441    1.5110    0.5296    2.1360 
1626.1080   14.1180  -20.8190   64.8115    1.5260    0.5266    2.1170 
1626.2604   14.3910  -20.5810   62.1189    1.5380    0.5374    2.1010 
1626.4128   13.8580  -19.2640   59.9563    1.5510    0.5319    2.1010 
1626.5652   13.2210  -17.9550   58.6337    1.5890    0.4993    2.1310 
1626.7176   12.9730  -17.6850   57.3110    1.6320    0.4853    2.1580 
1626.8700   12.7610  -18.2360   58.4684    1.6660    0.4958    2.1570 
1627.0224   12.4750  -18.8590   58.6658    1.6950    0.5006    2.1500 
1627.1748   12.1280  -18.7590   58.2432    1.7400    0.4556    2.1350 
1627.3272   11.9370  -18.5210   60.6506    1.6930    0.4392    2.1780 
1627.4796   12.0860  -18.4170   63.1680    1.6370    0.4444    2.1790 
1627.6320   12.3960  -18.9950   64.8454    1.5810    0.4574    2.1480 
1627.7844   12.8920  -19.5740   62.4728    1.5670    0.5487    2.0650 
1627.9368   13.3090  -19.7040   58.8102    1.5530    0.5569    2.0160 
1628.0892   13.4370  -19.8160   54.9375    1.5510    0.5684    1.9980 
1628.2416   13.2490  -19.8850   53.1749    1.5340    0.5729    1.9980 
1628.3940   13.3930  -19.6600   53.0823    1.5330    0.5764    1.9980 
1628.5464   13.4430  -19.4030   51.7397    1.5800    0.5780    1.9980 
1628.6988   13.4060  -19.1340   51.7071    1.6210    0.5764    1.9980 
1628.8512   10.9610  -18.8160   52.8345    1.6430    0.4916    1.9980 
1629.0036    9.3150  -18.4110   52.0419    1.6660    0.4264    1.9980 
1629.1560   10.3990  -18.0060   49.3534    1.6730    0.5414    1.9980 
1629.3084   11.4820  -17.8360   53.2267    1.6800    0.5881    1.9980 
1629.4608   12.5650  -18.5720   56.9741    1.6500    0.5952    1.9980 
1629.6132   13.2240  -19.2530   58.4415    1.6030    0.5966    1.9980 
1629.7656   13.8900  -19.8760   55.9688    1.5580    0.5973    1.9970 
