~VERSION INFORMATION
 VERS.                 2.0:   CWLS LOG ASCII STANDARD - VERSION 2.0
 WRAP.                  NO:   SINGLE LINE PER DEPTH STEP
 CREA.                 15/04/2025 16:02:59
#CREATED USING IP VERSION 4.5.2019.2902 BY ASUS ON 15/04/2025 16:02:59
~WELL INFORMATION
#MNEM.UNIT       DATA                          DESCRIPTION MNEMONIC
#---------      ---------------------------   --------------------------
 STRT    .M         1371.6000                 : START DEPTH
 STOP    .M         1905.0000                 : STOP DEPTH
 STEP    .M         0.1524                    : STEP VALUE
 NULL    .      -999.0000                     : NULL VALUE
 DATE    .      15/04/2025                    : LAS file Creation Date
 WELL   .      ABB-035                                            : Well Name
 COM1   .      Original database: Master Database IP ABAB (Meter) : Well Comment
 COMP   .                                                         : Company
 FLD    .                                                         : Field
 UWI    .      9803035                                            : Unique Well Identifier (UWI)
 LOC    .      TWP        - Range       - Sec                     : Location
 PDAT   .      GR                                                 : Permanent Datum
 LGMEA  .      KB                                                 : Log Measured from
 DRMEA  .      KB                                                 : Drill Measured From
 KB     .      17.34                                              : KB Elevation
 DF     .      -999.2500                                          : DF Elevation
 GL     .      -999.2500                                          : GL Elevation
 RWS    .      -999                                               : Def_Rw
 WST    .      -999                                               : Def_Rwt
 PROV   .                                                         : Province
 SRVC   .      SCH                                                : Contractor
 GDAT   .      WGS 84                                             : Geodatum
 LONG   .      0                                                  : Longitude
 LATI   .      0                                                  : Latitude
 COORDIN.                                                         : Grid System
 XCOORD .                                                         : X or East-West Coordinate
 YCOORD .                                                         : Y or North-South Coordinate
~CURVE INFORMATION
#MNEM              UNIT       API CODE   Curve Type Comments
#----------  --------------- ----------  ---------- -----------
 DEPTH      .M                         : Depth       
 CALI       .in                        : Caliper     CALI
 SP         .mV                        : SP          SP
 GR         .gAPI                      : GammaRay    GR
 RT         .ohm.m                     : DeepRes     ILD
 NPHI       .ft3/ft3                   : Neutron     CNL
 RHOB       .g/cm3                     : Density     DENS
~A  DEPTH    CALI       SP        GR        RT       NPHI      RHOB   
# ...
1595.4756   11.0150  -26.5800   11.2362    3.2410    0.1639    2.5340 
1595.6280   11.1250  -23.7240   17.5985    2.9650    0.1758    2.5450 
1595.7804   11.2360  -21.0790   25.6449    2.7120    0.2058    2.5400 
1595.9328   11.4140  -19.1210   31.6553    2.5260    0.2419    2.5220 
1596.0852   11.5400  -17.7040   35.6596    2.3520    0.2532    2.4950 
1596.2376   11.3140  -17.6730   29.9711    2.2280    0.2513    2.4660 
1596.3900   11.1110  -17.4030   27.9715    2.1260    0.2347    2.4490 
1596.5424   11.1060  -17.1340   24.6649    2.1390    0.2394    2.4630 
1596.6948   11.1010  -17.0480   22.0953    2.1520    0.2405    2.4670 
1596.8472   11.0800  -17.0790   20.6367    2.2870    0.2365    2.4470 
1596.9996   11.0590  -17.3680   15.1851    2.4590    0.2266    2.4280 
1597.1520   10.8070  -17.6580    6.1394    2.7280    0.1841    2.5050 
1597.3044   10.6290  -17.1200    0.7828    3.0170    0.1543    2.5380 
1597.4568   10.5400  -16.4980   -3.8868    3.4010    0.1295    2.5810 
1597.6092   10.4780  -16.2170   -8.9434    3.9090    0.1100    2.5850 
1597.7616   10.4150  -16.2860  -11.6230    4.4970    0.0911    2.5990 
1597.9140   10.3750  -17.0980  -10.5306    5.0560    0.0873    2.5990 
1598.0664   10.3340  -17.9410   -9.6672    5.4230    0.0911    2.5890 
1598.2188   10.2930  -18.3160   -7.5968    5.5780    0.0968    2.5830 
1598.3712   10.2760  -18.6140   -4.1894    5.4930    0.1030    2.5830 
1598.5236   10.2590  -17.9400   -5.3980    5.2910    0.1067    2.5760 
1598.6760   10.2420  -17.2650   -7.5697    4.9100    0.1070    2.5690 
1598.8284   10.2510  -17.1570   -8.7283    4.4210    0.1100    2.5730 
1598.9808   10.2610  -17.0480   -6.8279    3.8940    0.1190    2.5720 
1599.1332   10.2830  -16.8700   -3.8115    3.2860    0.1322    2.5550 
1599.2856   10.3170  -16.6450    0.1039    2.7330    0.1471    2.5340 
1599.4380   10.3770  -16.4200    1.9883    2.3040    0.1608    2.4960 
1599.5904   10.4390  -16.4160    5.2937    1.9770    0.1813    2.4360 
1599.7428   10.6850  -16.4110    8.9071    1.7600    0.2334    2.3760 
1599.8952   10.7580  -16.4740   10.2905    1.7010    0.2690    2.3510 
1600.0476   11.2560  -16.6190    8.3138    1.6510    0.2855    2.2830 
1600.2000   10.9650  -16.8250    5.4132    1.7210    0.2331    2.2870 
1600.3524   10.4500  -17.2290    1.5526    1.7990    0.2227    2.3890 
1600.5048   10.2830  -18.1480    1.3420    2.0480    0.1743    2.5220 
1600.6572   10.2580  -19.3290   -0.3116    2.3190    0.1720    2.5310 
1600.8096   10.2450  -20.9010   -3.8292    2.7220    0.1690    2.5310 
1600.9620   10.2490  -22.3800   -5.5567    3.0810    0.1633    2.5370 
1601.1144   10.2520  -23.5600    0.9116    3.3830    0.1562    2.5430 
1601.2668   10.2550  -24.1100    9.0620    3.5370    0.1495    2.5480 
1601.4192   10.2710  -23.2660   15.6714    3.4270    0.1521    2.5520 
1601.5716   10.2870  -22.0000   17.7117    3.2050    0.1793    2.5020 
1601.7240   10.3070  -20.1580   17.7011    2.9030    0.2066    2.4570 
1601.8764   10.3210  -18.6590   18.2195    2.5740    0.2338    2.4280 
1602.0288   10.3680  -18.1720   15.5210    2.2770    0.2832    2.3900 
1602.1812   11.1590  -17.6850   23.6944    2.0260    0.3325    2.3580 
1602.3336   12.2830  -18.2650   37.7837    1.8450    0.3818    2.3000 
1602.4860   12.7570  -18.9400   50.5240    1.7050    0.4312    2.2320 
1602.6384   12.9520  -18.9490   56.1834    1.6770    0.4572    2.1690 
1602.7908   13.0230  -18.9590   51.3709    1.6480    0.3842    2.1340 
1602.9432   12.7960  -18.8390   44.8163    1.7250    0.3113    2.1650 
1603.0956   12.4380  -18.6830   37.0076    1.8660    0.2384    2.2650 
1603.2480   10.8460  -18.5180   26.1650    2.4250    0.1655    2.4510 
1603.4004   10.2530  -18.3490   13.9305    2.9590    0.1341    2.5340 
1603.5528   10.0970  -17.8140    8.7758    3.8540    0.1238    2.5180 
1603.7052   10.0400  -17.7330    5.0482    5.0500    0.1387    2.4790 
1603.8576    9.9840  -19.1340   -1.6414    5.9840    0.1675    2.4630 
1604.0100   10.6510  -20.3960   -6.5950    6.3390    0.1765    2.4360 
1604.1624   11.2430  -21.1550   -6.7625    6.1510    0.1760    2.3170 
1604.3148   11.1770  -21.9140    1.1308    5.5970    0.1605    2.3300 
1604.4672   11.1110  -22.8090   11.0602    5.1010    0.1451    2.4450 
1604.6196   10.8070  -23.7620   21.9175    4.6260    0.1426    2.4690 
1604.7720   10.3300  -24.7290   32.6478    4.1520    0.1583    2.4460 
1604.9244   10.2580  -26.2850   33.5912    3.6480    0.1741    2.4310 
1605.0768   10.2370  -27.8400   28.7917    3.3190    0.1736    2.4240 
1605.2292   10.2160  -32.5220   23.3721    3.1250    0.1680    2.4330 
1605.3816   10.2310  -38.0100   20.4096    2.9430    0.1628    2.4450 
1605.5340   10.2470  -41.3530   24.8639    2.8310    0.2054    2.4260 
1605.6864   10.2710  -43.2880   31.9973    2.7370    0.2275    2.3900 
1605.8388   10.2950  -44.6020   35.3107    2.6540    0.2393    2.3550 
1605.9912   10.3180  -45.3270   37.9760    2.5710    0.2550    2.3360 
1606.1436   10.4150  -45.5650   43.1255    2.4440    0.2692    2.3500 
1606.2960   10.8900  -42.8050   55.6708    2.3150    0.2904    2.3790 
1606.4484   11.4610  -39.5680   67.3881    2.2400    0.3625    2.4060 
1606.6008   12.0570  -35.1730   74.2356    2.1840    0.3980    2.3500 
1606.7532   12.2410  -29.9370   77.7430    2.1280    0.4165    2.2950 
1606.9056   12.0580  -25.8850   77.8404    2.1140    0.3910    2.3060 
1607.0580   11.6610  -23.9700   73.8778    2.1030    0.3734    2.3220 
1607.2104   11.3380  -22.5730   72.7752    2.0930    0.3618    2.3230 
1607.3628   11.2800  -21.3930   75.1026    2.0920    0.3433    2.3280 
1607.5152   11.2210  -20.6050   77.3099    2.1390    0.3187    2.3800 
1607.6676   11.3160  -20.1280   76.1873    2.2100    0.3158    2.4040 
1607.8200   11.3940  -19.6520   74.0547    2.2800    0.3139    2.3950 
1607.9724   11.3210  -19.6240   74.4220    2.3630    0.3056    2.3810 
1608.1248   11.3040  -19.5960   68.9295    2.4560    0.2841    2.3870 
1608.2772   11.3320  -19.4420   62.7869    2.6020    0.2759    2.4160 
1608.4296   11.3520  -19.3010   54.5843    2.8030    0.2663    2.4310 
1608.5820   11.3140  -19.5260   46.5177    3.0050    0.2362    2.4180 
1608.7344   11.2840  -20.9010   36.0691    3.2060    0.2173    2.4450 
1608.8868   11.2540  -22.5210   25.5875    3.3850    0.1974    2.4870 
1609.0392   11.2730  -24.5460   24.7229    3.5590    0.1785    2.4970 
1609.1916   11.2920  -26.6050   31.1022    3.7220    0.1835    2.4820 
1609.3440   11.3120  -28.0220   34.2026    3.8730    0.1938    2.4620 
1609.4964   11.3330  -29.1740   35.3910    3.8760    0.2067    2.4440 
1609.6488   11.3350  -30.0460   36.9694    3.7900    0.2067    2.4350 
1609.8012   11.3270  -29.3100   39.0798    3.7040    0.2067    2.4310 
1609.9536   11.3190  -29.2550   39.9872    3.6350    0.2037    2.4150 
1610.1060   11.3110  -30.4700   37.1856    3.6040    0.2023    2.3970 
1610.2584   11.2900  -31.5270   35.1389    3.5860    0.2108    2.3820 
1610.4108   11.2690  -31.9300   35.6884    3.6000    0.2087    2.3850 
1610.5632   11.2640  -32.3340   45.0256    3.6190    0.2067    2.4070 
1610.7156   11.2590  -32.0700   47.1770    3.6900    0.2053    2.4260 
1610.8680   11.2530  -30.4420   43.6825    3.7610    0.2044    2.4330 
1611.0204   11.2480  -29.0250   40.8539    3.7820    0.2029    2.4220 
1611.1728   11.2430  -28.3510   39.2283    3.8030    0.2006    2.4190 
1611.3252   11.2380  -27.8160   41.3787    3.8040    0.1975    2.4190 
1611.4776   11.2340  -27.6610   41.7581    3.8210    0.1956    2.4280 
1611.6300   11.2290  -27.6320   42.1385    3.8320    0.1987    2.4240 
1611.7824   11.2340  -27.8570   43.2409    3.8090    0.2064    2.4200 
1611.9348   11.2390  -28.0820   44.4242    3.7870    0.2116    2.4150 
1612.0872   11.2440  -27.7870   46.0266    3.7370    0.2172    2.4200 
1612.2396   11.2500  -26.9780   47.7830    3.6290    0.2235    2.4180 
1612.3920   11.2650  -26.0920   45.9624    3.5220    0.2335    2.4140 
1612.5444   11.2800  -24.7430   42.2908    3.4640    0.2431    2.4100 
