~VERSION INFORMATION
 VERS.                 2.0:   CWLS LOG ASCII STANDARD - VERSION 2.0
 WRAP.                  NO:   SINGLE LINE PER DEPTH STEP
 CREA.                 15/04/2025 16:02:59
#CREATED USING IP VERSION 4.5.2019.2902 BY ASUS ON 15/04/2025 16:02:59
~WELL INFORMATION
#MNEM.UNIT       DATA                          DESCRIPTION MNEMONIC
#---------      ---------------------------   --------------------------
 STRT    .M         1371.6000                 : START DEPTH
 STOP    .M         1905.0000                 : STOP DEPTH
 STEP    .M         0.1524                    : STEP VALUE
 NULL    .      -999.0000                     : NULL VALUE
 DATE    .      15/04/2025                    : LAS file Creation Date
 WELL   .      ABB-035                                            : Well Name
 COM1   .      Original database: Master Database IP ABAB (Meter) : Well Comment
 COMP   .                                                         : Company
 FLD    .                                                         : Field
 UWI    .      9803035                                            : Unique Well Identifier (UWI)
 LOC    .      TWP        - Range       - Sec                     : Location
 PDAT   .      GR                                                 : Permanent Datum
 LGMEA  .      KB                                                 : Log Measured from
 DRMEA  .      KB                                                 : Drill Measured From
 KB     .      17.34                                              : KB Elevation
 DF     .      -999.2500                                          : DF Elevation
 GL     .      -999.2500                                          : GL Elevation
 RWS    .      -999                                               : Def_Rw
 WST    .      -999                                               : Def_Rwt
 PROV   .                                                         : Province
 SRVC   .      SCH                                                : Contractor
 GDAT   .      WGS 84                                             : Geodatum
 LONG   .      0                                                  : Longitude
 LATI   .      0                                                  : Latitude
 COORDIN.                                                         : Grid System
 XCOORD .                                                         : X or East-West Coordinate
 YCOORD .                                                         : Y or North-South Coordinate
~CURVE INFORMATION
#MNEM              UNIT       API CODE   Curve Type Comments
#----------  --------------- ----------  ---------- -----------
 DEPTH      .M                         : Depth       
 CALI       .in                        : Caliper     CALI
 SP         .mV                        : SP          SP
 GR         .gAPI                      : GammaRay    GR
 RT         .ohm.m                     : DeepRes     ILD
 NPHI       .ft3/ft3                   : Neutron     CNL
 RHOB       .g/cm3                     : Density     DENS
~A  DEPTH    CALI       SP        GR        RT       NPHI      RHOB   
# ...
1474.9272    8.3270 -108.8320   35.5679    2.9590    0.2799    2.2030 
1475.0796    8.3300 -108.4370   33.0193    2.8880    0.2793    2.1960 
1475.2320    8.3320 -108.2690   29.8347    2.8290    0.2882    2.1910 
1475.3844    8.3310 -108.1180   27.2261    2.7780    0.3240    2.1530 
1475.5368    8.3300 -108.0050   22.9625    2.7340    0.3381    2.1620 
1475.6892    8.3270 -107.8930   17.8489    2.6890    0.3407    2.1930 
1475.8416    8.3240 -107.8350   14.5193    2.6080    0.3365    2.1810 
1475.9940    8.3210 -108.4120   15.8776    2.5440    0.3363    2.1730 
1476.1464    8.3180 -109.0850   19.8450    2.4950    0.3347    2.1850 
1476.2988    8.3140 -109.5910   19.9464    2.4500    0.3301    2.1790 
1476.4512    8.3160 -109.9280   17.9788    2.4050    0.3257    2.1700 
1476.6036    8.3180 -109.9680   15.1602    2.3600    0.3365    2.1650 
1476.7560    8.3200 -109.8240   12.6026    2.3150    0.3266    2.1760 
1476.9084    8.3220 -109.8000   13.7000    2.2510    0.3220    2.1860 
1477.0608    8.3240 -109.9450   14.4624    2.1870    0.3026    2.1940 
1477.2132    8.3260 -110.1260   11.3778    2.1240    0.2904    2.2110 
1477.3656    8.3240 -110.4370    7.5511    2.0790    0.2779    2.2100 
1477.5180    8.3230 -110.7830    3.1955    2.0130    0.2709    2.2150 
1477.6704    8.3210 -111.2880    1.5139    1.9360    0.2773    2.1980 
1477.8228    8.3070 -111.7940    1.2013    1.8590    0.3079    2.1690 
1477.9752    8.2930 -112.0970    1.3927    1.7900    0.3230    2.1320 
1478.1276    8.2810 -112.2340    0.8471    1.7350    0.3376    2.0860 
1478.2800    8.2700 -111.7670   -1.0015    1.7310    0.3661    2.0550 
1478.4324    8.2660 -111.3440   -2.7451    1.7270    0.3710    2.0860 
1478.5848    8.2620 -111.6330   -3.1207    1.7220    0.3556    2.1220 
1478.7372    8.2590 -111.9220   -1.5684    1.7180    0.3461    2.1350 
1478.8896    8.2520 -111.5270   -3.3030    1.7140    0.3365    2.1510 
1479.0420    8.2450 -111.0220   -3.7496    1.7080    0.3134    2.2060 
1479.1944    8.2420 -110.7700   -1.8602    1.6930    0.3023    2.2300 
1479.3468    8.2390 -110.9950    2.0502    1.6700    0.3142    2.2100 
1479.4992    8.2370 -111.1990    5.1926    1.6190    0.3304    2.1950 
1479.6516    8.2340 -111.4580    8.2830    1.5700    0.3323    2.1850 
1479.8040    8.2370 -111.8150    9.5394    1.5230    0.3278    2.2160 
1479.9564    8.2400 -112.1720    7.4788    1.4840    0.3269    2.2430 
1480.1088    8.2430 -112.4450    5.6212    1.4590    0.3456    2.2400 
1480.2612    8.2460 -112.6830    7.2506    1.4330    0.3689    2.1830 
1480.4136    8.2490 -112.9090   10.3799    1.4080    0.3852    2.1040 
1480.5660    8.2540 -112.7060   10.7133    1.3820    0.3771    2.1020 
1480.7184    8.2590 -112.4330   11.4897    1.3550    0.3695    2.1110 
1480.8708    8.2640 -112.0760   12.5251    1.3360    0.3662    2.1200 
1481.0232    8.2690 -111.7190   11.7935    1.3480    0.3603    2.1150 
1481.1756    8.2780 -111.7380    7.8179    1.3600    0.3340    2.1340 
1481.3280    8.2870 -111.8570    5.3543    1.3970    0.3098    2.1700 
1481.4804    8.2960 -111.9100    3.7827    1.4560    0.2948    2.2030 
1481.6328    8.3040 -111.9620    2.8511    1.5160    0.2807    2.2120 
1481.7852    8.3130 -111.9160    1.8064    1.6490    0.2675    2.2190 
1481.9376    8.3270 -111.3380   -0.0072    1.7930    0.2526    2.2300 
1482.0900    8.3410 -110.7600   -2.6508    1.9090    0.2391    2.2450 
1482.2424    8.3540 -111.1790   -6.7374    2.0120    0.2273    2.2820 
1482.3948    8.3680 -111.6730   -9.3380    2.1330    0.2161    2.3010 
1482.5472    8.3700 -111.8570  -10.7086    2.1900    0.2290    2.2860 
1482.6996    8.3730 -111.9090   -8.7242    2.1600    0.2414    2.2360 
1482.8520    8.3550 -111.9620   -7.4718    2.0480    0.2656    2.1570 
1483.0044    8.3370 -111.4460   -6.2084    1.9160    0.2921    2.0890 
1483.1568    8.2870 -110.7110   -3.7551    1.7870    0.3162    2.0360 
1483.3092    8.2400 -110.7020   -2.7527    1.6660    0.3559    1.9990 
1483.4616    8.1920 -110.6920   -0.2383    1.6000    0.3786    1.9990 
1483.6140    8.1840 -110.7150    1.0401    1.5420    0.3822    1.9980 
1483.7664    8.1750 -110.8710    0.6055    1.4860    0.3869    1.9980 
1483.9188    8.1670 -111.0510   -1.5071    1.4310    0.3597    2.0640 
1484.0712    8.1590 -111.4300   -3.6177    1.4280    0.3426    2.1460 
1484.2236    8.1510 -111.8090   -6.2043    1.4140    0.3362    2.1780 
1484.3760    8.1590 -111.8110   -5.8389    1.4000    0.3220    2.1910 
1484.5284    8.1680 -111.5590   -6.2915    1.3740    0.3072    2.1800 
1484.6808    8.1760 -111.3040   -6.1571    1.3470    0.3151    2.1690 
1484.8332    8.1730 -111.0350   -5.7288    1.3190    0.3443    2.1650 
1484.9856    8.1710 -110.7650   -4.7704    1.2890    0.3529    2.1500 
1485.1380    8.1680 -110.6920   -4.3320    1.2560    0.3554    2.1170 
1485.2904    8.1700 -110.6930   -5.1586    1.2320    0.3666    2.1110 
1485.4428    8.1720 -111.0610   -6.1222    1.2200    0.3663    2.1150 
1485.5952    8.1740 -111.8850   -6.4928    1.2090    0.3651    2.1230 
1485.7476    8.1760 -111.8130   -5.5894    1.2080    0.3681    2.1420 
1485.9000    8.1780 -111.9690   -4.8000    1.2070    0.3635    2.1640 
1486.0524    8.1780 -112.1240   -5.5686    1.2070    0.3648    2.1770 
1486.2048    8.1770 -112.2790   -6.9993    1.2060    0.3647    2.1740 
1486.3572    8.1770 -112.2030   -7.7829    1.2170    0.3647    2.1850 
1486.5096    8.1760 -112.0680   -6.4435    1.2290    0.3587    2.2060 
1486.6620    8.1860 -112.0960   -2.3661    1.2420    0.3652    2.2000 
1486.8144    8.2370 -112.7280    0.3653    1.2630    0.3646    2.1840 
1486.9668    8.2880 -113.3600    2.0077    1.2830    0.3677    2.1510 
1487.1192    8.3320 -113.3130    1.7801    1.3020    0.3730    2.1030 
1487.2716    8.3370 -112.9760    0.3935    1.3110    0.3670    2.0810 
1487.4240    8.3410 -112.6390   -0.0761    1.3190    0.3528    2.0680 
1487.5764    8.3330 -112.2650    0.9512    1.3270    0.3383    2.1140 
1487.7288    8.3260 -111.8860    2.3506    1.3290    0.3333    2.1410 
1487.8812    8.3180 -111.7570    3.6560    1.3310    0.3283    2.1440 
1488.0336    8.3100 -112.0680    4.2204    1.3330    0.3283    2.1280 
1488.1860    8.3050 -112.5990    2.7868    1.3070    0.3267    2.1170 
1488.3384    8.3010 -112.8520    1.5492    1.2730    0.3250    2.1030 
1488.4908    8.2960 -112.8670    0.2156    1.2490    0.3354    2.1080 
1488.6432    8.2910 -112.8830   -1.4050    1.2510    0.3314    2.1310 
1488.7956    8.2930 -112.8990   -3.0586    1.2760    0.3272    2.1610 
1488.9480    8.2950 -112.9140   -5.9232    1.3010    0.3149    2.1820 
1489.1004    8.2970 -112.6240   -6.3088    1.3350    0.3086    2.2350 
1489.2528    8.2990 -112.1910   -3.8945    1.3710    0.3036    2.2570 
1489.4052    8.3030 -112.1660   -2.8981    1.4350    0.3120    2.2440 
1489.5576    8.3060 -112.6000   -1.0617    1.4990    0.3204    2.2230 
1489.7100    8.3100 -112.8220   -0.3353    1.5570    0.3162    2.2240 
1489.8624    8.3040 -112.4850    0.1901    1.5720    0.3040    2.2170 
1490.0148    8.2970 -112.2300    1.6755    1.5860    0.2759    2.1970 
1490.1672    8.2910 -112.1040    4.8439    1.5970    0.2587    2.1970 
1490.3196    8.2850 -111.9770    6.9043    1.6080    0.2671    2.2010 
1490.4720    8.2790 -111.9720    8.5657    1.6180    0.2784    2.2020 
1490.6244    8.2790 -111.9670   10.2391    1.6390    0.2931    2.2120 
1490.7768    8.2790 -111.9620   10.8414    1.6600    0.3214    2.1960 
1490.9292    8.2790 -111.7120    8.6718    1.6810    0.3236    2.1840 
1491.0816    8.2790 -111.3750    4.8272    1.7600    0.3274    2.1870 
1491.2340    8.2790 -111.2030   -0.1214    1.8410    0.3178    2.1950 
1491.3864    8.2790 -111.0590   -6.0150    1.9210    0.2994    2.2040 
1491.5388    8.2830 -110.6550  -10.1976    2.0000    0.2786    2.2240 
1491.6912    8.2880 -110.1160  -11.5462    2.0790    0.2908    2.2500 
1491.8436    8.2830 -109.6090  -12.0018    2.1580    0.2907    2.2510 
1491.9960    8.2800 -109.1750  -12.1935    2.1920    0.2827    2.2390 
