~VERSION INFORMATION
 VERS.                 2.0:   CWLS LOG ASCII STANDARD - VERSION 2.0
 WRAP.                  NO:   SINGLE LINE PER DEPTH STEP
 CREA.                 15/04/2025 16:02:59
#CREATED USING IP VERSION 4.5.2019.2902 BY ASUS ON 15/04/2025 16:02:59
~WELL INFORMATION
#MNEM.UNIT       DATA                          DESCRIPTION MNEMONIC
#---------      ---------------------------   --------------------------
 STRT    .M         1371.6000                 : START DEPTH
 STOP    .M         1905.0000                 : STOP DEPTH
 STEP    .M         0.1524                    : STEP VALUE
 NULL    .      -999.0000                     : NULL VALUE
 DATE    .      15/04/2025                    : LAS file Creation Date
 WELL   .      ABB-035                                            : Well Name
 COM1   .      Original database: Master Database IP ABAB (Meter) : Well Comment
 COMP   .                                                         : Company
 FLD    .                                                         : Field
 UWI    .      9803035                                            : Unique Well Identifier (UWI)
 LOC    .      TWP        - Range       - Sec                     : Location
 PDAT   .      GR                                                 : Permanent Datum
 LGMEA  .      KB                                                 : Log Measured from
 DRMEA  .      KB                                                 : Drill Measured From
 KB     .      17.34                                              : KB Elevation
 DF     .      -999.2500                                          : DF Elevation
 GL     .      -999.2500                                          : GL Elevation
 RWS    .      -999                                               : Def_Rw
 WST    .      -999                                               : Def_Rwt
 PROV   .                                                         : Province
 SRVC   .      SCH                                                : Contractor
 GDAT   .      WGS 84                                             : Geodatum
 LONG   .      0                                                  : Longitude
 LATI   .      0                                                  : Latitude
 COORDIN.                                                         : Grid System
 XCOORD .                                                         : X or East-West Coordinate
 YCOORD .                                                         : Y or North-South Coordinate
~CURVE INFORMATION
#MNEM              UNIT       API CODE   Curve Type Comments
#----------  --------------- ----------  ---------- -----------
 DEPTH      .M                         : Depth       
 CALI       .in                        : Caliper     CALI
 SP         .mV                        : SP          SP
 GR         .gAPI                      : GammaRay    GR
 RT         .ohm.m                     : DeepRes     ILD
 NPHI       .ft3/ft3                   : Neutron     CNL
 RHOB       .g/cm3                     : Density     DENS
~A  DEPTH    CALI       SP        GR        RT       NPHI      RHOB   
# ...
1750.4664    9.8660  -38.1790   93.0099    7.8560    0.2627    2.4270 
1750.6188    9.8620  -37.8260   91.6544    8.1470    0.2418    2.4280 
1750.7712    9.8620  -37.2020   90.3610    8.4390    0.2350    2.4410 
1750.9236    9.8600  -36.5760   89.1715    8.6930    0.2317    2.4470 
1751.0760    9.8580  -35.6670   88.8130    8.9140    0.2299    2.4630 
1751.2284    9.8500  -34.7460   91.0574    9.1350    0.2308    2.4910 
1751.3808    9.8430  -33.8420   88.7400    9.3450    0.2318    2.5040 
1751.5332    9.8220  -35.3470   86.3346    9.5170    0.2380    2.4760 
1751.6856    9.7760  -37.5870   85.0931    9.6880    0.2404    2.4410 
1751.8380    9.7180  -40.0570   86.1876    9.7880    0.2441    2.4240 
1751.9904    9.6400  -42.4630   85.6471    9.8890    0.2822    2.4100 
1752.1428    9.5520  -44.6680   85.2497    9.9260    0.2846    2.3950 
1752.2952    9.4510  -47.1930   84.9372    9.9060    0.2794    2.3850 
1752.4476    9.3890  -49.4910   86.0607    9.8890    0.2744    2.3960 
1752.6000    9.3960  -50.2740   87.9082    9.8880    0.2694    2.4060 
1752.7524    9.4670  -50.7400   89.8137   10.0760    0.2652    2.4050 
1752.9048    9.5130  -49.7230   88.6703   10.2640    0.2849    2.3620 
1753.0572    9.4630  -48.9430   87.3138   10.6400    0.2960    2.3360 
1753.2096    9.3080  -48.7390   85.9573   11.0440    0.2971    2.3630 
1753.3620    9.2390  -48.9280   86.7039   11.5480    0.2816    2.4250 
1753.5144    9.1700  -49.2680   88.5794   12.1490    0.2633    2.4470 
1753.6668    9.0990  -49.6070   88.3539   12.7960    0.2388    2.4140 
1753.8192    9.2290  -48.2680   90.2294   13.4650    0.2164    2.4380 
1753.9716    9.3030  -45.5390   91.7490   14.2420    0.1965    2.4790 
1754.1240    9.3330  -42.4000   92.3075   15.2430    0.1694    2.4810 
1754.2764    9.2970  -40.1120   91.6820   16.7080    0.1821    2.4710 
1754.4288    9.2280  -39.6950   90.6025   17.8630    0.1834    2.4660 
1754.5812    9.1590  -39.4540   89.3290   19.1430    0.1847    2.4650 
1754.7336    9.1440  -39.5990   88.8136   20.4140    0.1828    2.4760 
1754.8860    9.2970  -39.6740   89.2901   21.8470    0.1842    2.4870 
1755.0384    9.2720  -38.3700   88.8776   22.7420    0.1868    2.4910 
1755.1908    9.2250  -36.8440   86.5621   23.6370    0.1719    2.4960 
1755.3432    9.1820  -34.8360   85.1377   24.5670    0.1662    2.5070 
1755.4956    9.1390  -32.0560   85.2232   25.6180    0.1609    2.5180 
1755.6480    9.0730  -29.9160   87.4677   26.6690    0.1564    2.5250 
1755.8004    8.9680  -29.2360   90.3532   27.7200    0.1482    2.5340 
1755.9528    8.8860  -28.5550   93.2708   28.3280    0.1478    2.5360 
1756.1052    8.8400  -28.6610   97.3232   28.6630    0.1474    2.5340 
1756.2576    8.8330  -28.9650   97.7658   28.9980    0.1422    2.5250 
1756.4100    8.8250  -29.2620   95.7253   29.1670    0.1385    2.5330 
1756.5624    8.8250  -29.4730   95.0519   29.2930    0.1407    2.5220 
1756.7148    8.8140  -29.6830   96.1254   29.4130    0.1455    2.5120 
1756.8672    8.8010  -29.8940   97.2879   29.5190    0.1492    2.5030 
1757.0196    8.7880  -30.1050   96.9924   29.6250    0.1506    2.5000 
1757.1720    8.7750  -30.6150   96.1450   29.9600    0.1498    2.5020 
1757.3244    8.7840  -31.2150   95.9345   30.8230    0.1491    2.5060 
1757.4768    8.7930  -31.8700   95.1310   31.8250    0.1467    2.5120 
1757.6292    8.7880  -33.0000   93.1935   33.9810    0.1421    2.5200 
1757.7816    8.7750  -32.7080   90.9700   36.1370    0.1345    2.5350 
1757.9340    8.7620  -30.6430   90.7866   39.6890    0.1274    2.5410 
1758.0864    8.7590  -29.4450   91.3711   43.3690    0.1236    2.5310 
1758.2388    8.7560  -28.2480   92.6916   46.5310    0.1214    2.5430 
1758.3912    8.7690  -27.3950   95.3861   49.6930    0.1192    2.5440 
1758.5436    8.7810  -26.9520   96.2607   52.8310    0.1187    2.5480 
1758.6960    8.7900  -26.5100   95.0222   55.2180    0.1182    2.5320 
1758.8484    8.7730  -26.0670   93.7747   56.5550    0.1260    2.5220 
1759.0008    8.7650  -25.4970   92.8742   56.4000    0.1262    2.5180 
1759.1532    8.7570  -24.9030   92.1948   56.2450    0.1188    2.5300 
1759.3056    8.7480  -24.3090   93.8563   54.4940    0.1091    2.5420 
1759.4580    8.8090  -23.7360   95.5148   52.7360    0.0981    2.5630 
1759.6104    8.8690  -23.3970   96.2703   51.0590    0.0909    2.5730 
1759.7628    8.9310  -23.0570   96.4809   49.2090    0.0866    2.5790 
1759.9152    8.9110  -23.1840   95.9524   47.1920    0.0853    2.5950 
1760.0676    8.8640  -24.6650   94.2949   45.7060    0.0948    2.5980 
1760.2200    8.8140  -25.9410   94.2074   44.3640    0.1045    2.5920 
1760.3724    8.7630  -27.0380   94.4660   43.4550    0.1123    2.5800 
1760.5248    8.7440  -28.1670   93.5215   44.3080    0.1187    2.5650 
1760.6772    8.7260  -29.3290   92.4650   45.5790    0.1218    2.5620 
1760.8296    8.7070  -30.4070   93.0485   46.8510    0.1215    2.5600 
1760.9820    8.6880  -31.2800   91.5250   49.8350    0.1173    2.5640 
1761.1344    8.7050  -32.0390   91.7886   53.1900    0.1024    2.5980 
1761.2868    8.7400  -31.7260   93.0891   58.1221    0.0894    2.6220 
1761.4392    8.7520  -31.3780   93.3586   67.4270    0.0850    2.6460 
1761.5916    8.7460  -30.4380   92.9071   75.4900    0.0830    2.6370 
1761.7440    8.7410  -29.5100   92.8617   82.3360    0.0828    2.6250 
1761.8964    8.7360  -29.2840   91.9892   88.7760    0.0817    2.6220 
1762.0488    8.7300  -29.0580   90.7887   93.9040    0.0789    2.6240 
1762.2012    8.7230  -28.8310   89.6202   97.4250    0.0766    2.6250 
1762.3536    8.7160  -28.6050   90.3438  100.6500    0.0760    2.6150 
1762.5060    8.7090  -28.4720   93.1333  102.6700    0.0826    2.5980 
1762.6584    8.7010  -28.3650   94.7428  104.6800    0.0887    2.5880 
1762.8108    8.6940  -28.2570   95.9523  106.6500    0.0947    2.5810 
1762.9632    8.6890  -28.2910   95.3579  108.2100    0.1007    2.5580 
1763.1156    8.6850  -28.3620   94.7394  108.1400    0.1067    2.5500 
1763.2680    8.6800  -28.4320   96.1529  107.3700    0.1129    2.5400 
1763.4204    8.6750  -28.5020   98.4914  107.6000    0.1169    2.5300 
1763.5728    8.6710  -28.6800   97.9430  108.8700    0.1180    2.5230 
1763.7252    8.6700  -29.1890   97.6645  110.5300    0.1192    2.5160 
1763.8776    8.6680  -29.6990   98.2740  110.2200    0.1170    2.5180 
1764.0300    8.6670  -30.3730   97.9300  109.8100    0.1183    2.5200 
1764.1824    8.6660  -31.0850   96.7230  108.5700    0.1215    2.5250 
1764.3348    8.6640  -31.4410   95.7680  107.3900    0.1238    2.5160 
1764.4872    8.6630  -31.5980   95.9291  106.9200    0.1200    2.5100 
1764.6396    8.6650  -31.7640  100.0120  106.5000    0.1166    2.5290 
1764.7920    8.6660  -32.2730  102.0729  107.6200    0.1165    2.5330 
1764.9444    8.6720  -32.7820   97.7810  108.2300    0.1164    2.5410 
1765.0968    8.6770  -33.1230   95.7210  108.5200    0.1191    2.5340 
1765.2492    8.6730  -33.3090   93.5270  108.8000    0.1235    2.5180 
1765.4016    8.6690  -34.4920   91.5900  108.6800    0.1290    2.5140 
1765.5540    8.6660  -35.0740   91.2129  108.7400    0.1352    2.5100 
1765.7064    8.6440  -35.7100   84.1227  108.8800    0.1455    2.4740 
1765.8588    8.5700  -36.7270   58.6351  109.0200    0.1563    2.4470 
1766.0112    8.4200  -36.9760 -999.0000  109.1500    0.1706    2.4440 
1766.1636    8.1820  -36.6060 -999.0000  109.2700    0.1831    2.4510 
1766.3160    7.6860  -36.4130 -999.0000  109.4000    0.1903    2.4340 
1766.4684    6.8790  -36.2560 -999.0000  109.5100    0.1924    2.4080 
1766.6208    6.3220  -36.5150 -999.0000  109.6300    0.1930    2.3970 
1766.7732    6.3150  -36.8850 -999.0000  109.7700    0.1942    2.4010 
1766.9256    6.3090  -37.2550 -999.0000  109.9000    0.1955    2.3990 
1767.0780    6.3020  -37.6250 -999.0000  109.8000    0.1988    2.3970 
1767.2304    6.2950  -37.9950 -999.0000  109.5300    0.2017    2.4000 
1767.3828    6.2890  -38.1910 -999.0000  109.0800    0.1995    2.4040 
1767.5352    6.2820  -38.2760 -999.0000  108.6300    0.1988    2.4050 
