~VERSION INFORMATION
 VERS.                 2.0:   CWLS LOG ASCII STANDARD - VERSION 2.0
 WRAP.                  NO:   SINGLE LINE PER DEPTH STEP
 CREA.                 15/04/2025 16:02:59
#CREATED USING IP VERSION 4.5.2019.2902 BY ASUS ON 15/04/2025 16:02:59
~WELL INFORMATION
#MNEM.UNIT       DATA                          DESCRIPTION MNEMONIC
#---------      ---------------------------   --------------------------
 STRT    .M         1371.6000                 : START DEPTH
 STOP    .M         1905.0000                 : STOP DEPTH
 STEP    .M         0.1524                    : STEP VALUE
 NULL    .      -999.0000                     : NULL VALUE
 DATE    .      15/04/2025                    : LAS file Creation Date
 WELL   .      ABB-035                                            : Well Name
 COM1   .      Original database: Master Database IP ABAB (Meter) : Well Comment
 COMP   .                                                         : Company
 FLD    .                                                         : Field
 UWI    .      9803035                                            : Unique Well Identifier (UWI)
 LOC    .      TWP        - Range       - Sec                     : Location
 PDAT   .      GR                                                 : Permanent Datum
 LGMEA  .      KB                                                 : Log Measured from
 DRMEA  .      KB                                                 : Drill Measured From
 KB     .      17.34                                              : KB Elevation
 DF     .      -999.2500                                          : DF Elevation
 GL     .      -999.2500                                          : GL Elevation
 RWS    .      -999                                               : Def_Rw
 WST    .      -999                                               : Def_Rwt
 PROV   .                                                         : Province
 SRVC   .      SCH                                                : Contractor
 GDAT   .      WGS 84                                             : Geodatum
 LONG   .      0                                                  : Longitude
 LATI   .      0                                                  : Latitude
 COORDIN.                                                         : Grid System
 XCOORD .                                                         : X or East-West Coordinate
 YCOORD .                                                         : Y or North-South Coordinate
~CURVE INFORMATION
#MNEM              UNIT       API CODE   Curve Type Comments
#----------  --------------- ----------  ---------- -----------
 DEPTH      .M                         : Depth       
 CALI       .in                        : Caliper     CALI
 SP         .mV                        : SP          SP
 GR         .gAPI                      : GammaRay    GR
 RT         .ohm.m                     : DeepRes     ILD
 NPHI       .ft3/ft3                   : Neutron     CNL
 RHOB       .g/cm3                     : Density     DENS
~A  DEPTH    CALI       SP        GR        RT       NPHI      RHOB   
# ...
1561.0332   10.8620  -16.0790    2.2161    3.4640    0.1613    2.5040 
1561.1856   10.8520  -15.8760    2.1445    3.5370    0.1574    2.5030 
1561.3380   10.8410  -15.8240    1.6379    3.6250    0.1507    2.5280 
1561.4904   10.8310  -15.7720    0.5033    3.8190    0.1453    2.5370 
1561.6428   10.8130  -15.8620   -3.1423    4.0400    0.1402    2.5390 
1561.7952   10.7950  -16.5380   -6.2210    4.2700    0.1309    2.5350 
1561.9476   10.7800  -17.2820   -8.4886    4.4950    0.1207    2.5430 
1562.1000   10.7660  -18.2270   -8.2682    4.7150    0.1148    2.5530 
1562.2524   10.7520  -19.1720   -7.4038    4.9210    0.1161    2.5570 
1562.4048   10.7450  -19.5080   -4.9074    5.0430    0.1220    2.5680 
1562.5572   10.7380  -19.7780   -3.9030    4.9990    0.1261    2.5700 
1562.7096   10.7310  -19.6360   -3.1806    4.7580    0.1268    2.5720 
1562.8620   10.7240  -19.1600   -1.3902    4.4860    0.1291    2.5540 
1563.0144   10.7170  -18.6830    2.4822    4.1270    0.1309    2.5350 
1563.1668   10.7130  -17.8310    6.9385    3.8460    0.1338    2.5350 
1563.3192   10.7090  -16.9300    8.6969    3.5860    0.1382    2.5390 
1563.4716   10.7050  -16.0450   11.3733    3.3880    0.1440    2.5430 
1563.6240   10.7010  -15.2150   16.5557    3.2580    0.1512    2.5400 
1563.7764   10.7070  -14.2810   20.6511    3.1380    0.1664    2.5280 
1563.9288   10.7130  -13.7260   20.3375    3.0500    0.1710    2.5170 
1564.0812   10.7190  -13.5880   18.7189    2.9620    0.1666    2.5170 
1564.2336   10.7240  -13.7150   18.6003    2.9090    0.1560    2.5190 
1564.3860   10.7260  -13.8410   19.0037    2.8690    0.1543    2.5370 
1564.5384   10.7280  -13.9680   22.0240    2.8360    0.1558    2.5370 
1564.6908   10.7300  -14.0940   25.2804    2.8160    0.1573    2.5230 
1564.8432   10.7320  -14.1200   29.1328    2.8140    0.1725    2.5130 
1564.9956   10.7250  -13.8950   31.0041    2.8120    0.1828    2.5040 
1565.1480   10.7180  -14.2010   26.6106    2.8570    0.1900    2.4910 
1565.3004   10.7090  -14.5800   20.9810    3.0040    0.1890    2.4830 
1565.4528   10.7010  -15.1940   18.1034    3.1520    0.1882    2.4970 
1565.6052   10.6920  -16.2060   14.3928    3.3670    0.1863    2.5150 
1565.7576   10.6960  -17.7360    5.2892    3.5910    0.1546    2.4940 
1565.9100   10.7000  -19.3370   -0.0694    3.8930    0.1411    2.4950 
1566.0624   10.7040  -20.2720   -0.2720    4.2290    0.1349    2.5150 
1566.2148   10.7070  -21.1750    0.4803    4.5980    0.1362    2.5260 
1566.3672   10.7060  -21.3190    1.7997    4.8480    0.1348    2.5200 
1566.5196   10.7050  -21.4640    1.7831    4.9970    0.1335    2.5220 
1566.6720   10.7040  -20.6860    2.5815    5.0760    0.1348    2.5280 
1566.8244   10.7030  -19.7400    4.5949    4.9510    0.1376    2.5230 
1566.9768   10.6970  -18.8410    5.4723    4.8000    0.1411    2.5360 
1567.1292   10.6920  -17.9880    6.3497    4.6530    0.1439    2.5570 
1567.2816   10.6870  -17.1360    6.2721    4.5050    0.1439    2.5620 
1567.4340   10.6810  -16.6440    5.2885    4.3570    0.1424    2.5570 
1567.5864   10.6870  -16.4880    3.3598    4.2090    0.1416    2.5490 
1567.7388   10.6930  -16.2680    1.2252    4.1210    0.1400    2.5650 
1567.8912   10.6990  -16.1280    2.0156    4.0880    0.1398    2.5690 
1568.0436   10.7040  -16.2290    2.8830    4.0840    0.1432    2.5610 
1568.1960   10.7080  -16.3310    1.6314    4.0980    0.1538    2.5530 
1568.3484   10.7140  -16.4070   -0.3152    4.1000    0.1542    2.5520 
1568.5008   10.7190  -16.9470   -0.9228    4.1030    0.1509    2.5490 
1568.6532   10.7240  -17.5260   -1.1464    4.1050    0.1475    2.5350 
1568.8056   10.7350  -18.0710   -1.0800    4.1070    0.1439    2.5370 
1568.9580   10.7460  -18.6040    1.0763    4.0530    0.1430    2.5390 
1569.1104   10.7570  -19.1370    4.5107    3.9340    0.1432    2.5470 
1569.2628   10.7750  -18.9080    6.0091    3.6560    0.1454    2.5330 
1569.4152   10.7930  -18.4410    7.2775    3.4080    0.1501    2.5110 
1569.5676   10.8070  -17.7620   11.3299    3.1860    0.1611    2.5160 
1569.7200   10.8400  -17.0020   13.1163    2.9690    0.1881    2.4870 
1569.8724   10.8820  -16.2430   12.9887    2.7610    0.2152    2.4440 
1570.0248   11.2480  -15.4830   16.1581    2.5760    0.2422    2.4020 
1570.1772   11.5970  -15.7140   20.0165    2.4110    0.2692    2.3450 
1570.3296   11.9900  -15.9850   22.5689    2.2620    0.2963    2.3310 
1570.4820   11.9140  -16.5400   25.0053    2.1180    0.3233    2.2630 
1570.6344   11.7140  -17.2750   26.3786    2.0090    0.3594    2.2020 
1570.7868   11.6610  -17.2690   25.9590    2.0050    0.3060    2.3590 
1570.9392   11.2500  -17.1680   25.2984    2.0560    0.2962    2.3790 
1571.0916   11.3180  -17.0670   24.4828    2.1140    0.3061    2.3160 
1571.2440   11.1250  -16.7370   24.2232    2.1710    0.2696    2.2490 
1571.3964   11.2590  -16.3320   24.8666    2.2460    0.2569    2.3260 
1571.5488   11.3930  -16.2510   21.3340    2.3230    0.2529    2.3810 
1571.7012   11.1530  -16.1700   16.4144    2.4400    0.2613    2.3900 
1571.8536   11.0020  -16.0890   13.4308    2.5700    0.2608    2.3800 
1572.0060   10.9970  -16.1140   11.7891    2.7050    0.2540    2.3750 
1572.1584   10.9920  -16.3390    8.6555    2.8480    0.2281    2.3380 
1572.3108   10.9710  -16.8430    5.8249    3.0260    0.2021    2.4280 
1572.4632   10.9500  -17.4660    2.1533    3.2040    0.1762    2.4620 
1572.6156   10.9290  -18.0370   -0.8793    3.3860    0.1611    2.5040 
1572.7680   10.9080  -18.2620   -0.0759    3.5720    0.1601    2.5210 
1572.9204   10.9000  -18.9200   -1.8435    3.7650    0.1593    2.5320 
1573.0728   10.8920  -19.6990   -2.8121    3.8720    0.1544    2.5490 
1573.2252   10.8970  -20.5830   -2.1937    3.9140    0.1504    2.5560 
1573.3776   10.9020  -21.4730   -0.1814    3.9570    0.1529    2.5430 
1573.5300   10.9070  -20.7260    1.8310    3.9770    0.1565    2.5160 
1573.6824   10.9120  -19.9790    4.2534    3.9660    0.1622    2.4880 
1573.8348   10.9170  -19.2510    2.7108    3.9550    0.1749    2.4740 
1573.9872   10.9210  -18.9440    3.5212    3.9240    0.2005    2.4660 
1574.1396   10.9260  -18.6370    5.6746    3.8550    0.2172    2.4510 
1574.2920   10.9300  -18.3310    6.9960    3.7660    0.2420    2.4190 
1574.4444   10.9210  -18.0240    7.1304    3.6660    0.2560    2.3780 
1574.5968   10.8800  -17.7170    9.9448    3.4860    0.2568    2.3160 
1574.7492   10.8220  -17.9700   12.7332    3.2820    0.2623    2.3450 
1574.9016   10.7650  -18.1510   16.1106    3.1470    0.2873    2.3160 
1575.0540   10.7380  -18.3190   24.3679    3.0930    0.2984    2.3080 
1575.2064   10.9350  -18.4880   32.7393    3.0760    0.2974    2.2360 
1575.3588   11.1320  -18.6710   35.9797    3.1170    0.2894    2.3650 
1575.5112   11.2900  -18.9240   37.8700    3.1570    0.2726    2.4150 
1575.6636   10.9740  -18.7160   30.5715    3.2110    0.2380    2.3720 
1575.8160   10.6580  -17.6450   23.0189    3.2920    0.2049    2.4650 
1575.9684   10.4650  -16.6310   17.8613    3.4680    0.1608    2.5470 
1576.1208   10.4070  -16.2490   17.9927    3.7110    0.1541    2.5550 
1576.2732   10.3490  -16.0470   19.8021    3.8640    0.1514    2.5400 
1576.4256   10.3230  -15.8440   20.3335    3.9470    0.1518    2.5390 
1576.5780   10.2960  -15.6420   19.6888    3.7200    0.1570    2.5380 
1576.7304   10.2690  -15.4390   16.6622    3.4250    0.1572    2.5170 
1576.8828   10.2520  -15.2370   14.0966    3.1020    0.1578    2.4690 
1577.0352   10.2790  -15.2030   15.3891    2.7160    0.1613    2.4460 
1577.1876   10.4850  -15.1700   24.2865    2.4280    0.2283    2.4150 
1577.3400   10.7930  -15.4730   39.2258    2.2700    0.2953    2.3810 
1577.4924   11.2670  -15.7760   49.3521    2.1260    0.3623    2.3150 
1577.6448   11.8300  -16.5360   53.9015    2.0330    0.4294    2.2480 
1577.7972   12.2730  -17.1170   51.1369    1.9560    0.3897    2.1910 
1577.9496   12.6750  -17.3420   46.9233    1.9390    0.3501    2.2500 
1578.1020   11.8160  -17.1250   40.8667    1.9450    0.3105    2.3240 
