~VERSION INFORMATION
 VERS.                 2.0:   CWLS LOG ASCII STANDARD - VERSION 2.0
 WRAP.                  NO:   SINGLE LINE PER DEPTH STEP
 CREA.                 15/04/2025 16:02:59
#CREATED USING IP VERSION 4.5.2019.2902 BY ASUS ON 15/04/2025 16:02:59
~WELL INFORMATION
#MNEM.UNIT       DATA                          DESCRIPTION MNEMONIC
#---------      ---------------------------   --------------------------
 STRT    .M         1371.6000                 : START DEPTH
 STOP    .M         1905.0000                 : STOP DEPTH
 STEP    .M         0.1524                    : STEP VALUE
 NULL    .      -999.0000                     : NULL VALUE
 DATE    .      15/04/2025                    : LAS file Creation Date
 WELL   .      ABB-035                                            : Well Name
 COM1   .      Original database: Master Database IP ABAB (Meter) : Well Comment
 COMP   .                                                         : Company
 FLD    .                                                         : Field
 UWI    .      9803035                                            : Unique Well Identifier (UWI)
 LOC    .      TWP        - Range       - Sec                     : Location
 PDAT   .      GR                                                 : Permanent Datum
 LGMEA  .      KB                                                 : Log Measured from
 DRMEA  .      KB                                                 : Drill Measured From
 KB     .      17.34                                              : KB Elevation
 DF     .      -999.2500                                          : DF Elevation
 GL     .      -999.2500                                          : GL Elevation
 RWS    .      -999                                               : Def_Rw
 WST    .      -999                                               : Def_Rwt
 PROV   .                                                         : Province
 SRVC   .      SCH                                                : Contractor
 GDAT   .      WGS 84                                             : Geodatum
 LONG   .      0                                                  : Longitude
 LATI   .      0                                                  : Latitude
 COORDIN.                                                         : Grid System
 XCOORD .                                                         : X or East-West Coordinate
 YCOORD .                                                         : Y or North-South Coordinate
~CURVE INFORMATION
#MNEM              UNIT       API CODE   Curve Type Comments
#----------  --------------- ----------  ---------- -----------
 DEPTH      .M                         : Depth       
 CALI       .in                        : Caliper     CALI
 SP         .mV                        : SP          SP
 GR         .gAPI                      : GammaRay    GR
 RT         .ohm.m                     : DeepRes     ILD
 NPHI       .ft3/ft3                   : Neutron     CNL
 RHOB       .g/cm3                     : Density     DENS
~A  DEPTH    CALI       SP        GR        RT       NPHI      RHOB   
# ...
1664.3604    8.1300  -33.9640   38.3149    5.9180    0.2227    2.4310 
1664.5128    8.0400  -37.2850   34.7356    6.3390    0.2341    2.4320 
1664.6652    8.0240  -40.5070   31.0384    6.6150    0.2335    2.4060 
1664.8176    8.0360  -43.1550   26.4661    6.8330    0.2313    2.3730 
1664.9700    8.0800  -45.3800   21.9518    6.9480    0.2290    2.3420 
1665.1224    8.1640  -47.8310   19.6106    7.0360    0.2262    2.3390 
1665.2748    8.2480  -48.7730   21.8694    7.1080    0.2235    2.3410 
1665.4272    8.3180  -48.5100   29.7629    7.1390    0.2249    2.3890 
1665.5796    8.2350  -47.4460   32.8286    7.1400    0.2247    2.3900 
1665.7320    8.2430  -45.6080   29.0484    7.0390    0.2236    2.3650 
1665.8844    8.2500  -43.8460   25.1382    6.9270    0.2239    2.3550 
1666.0368    8.2820  -44.9950   25.4900    6.7340    0.2279    2.3530 
1666.1892    8.3240  -46.2560   30.6826    6.5330    0.2277    2.3600 
1666.3416    8.3660  -45.4870   32.6893    6.3320    0.2276    2.3570 
1666.4940    8.4120  -44.7180   36.1670    6.1420    0.2313    2.3600 
1666.6464    8.4170  -42.4020   41.9537    5.9580    0.2362    2.3590 
1666.7988    8.3040  -39.5900   41.7145    5.7590    0.2413    2.3670 
1666.9512    8.2950  -36.7350   39.2482    5.5580    0.2356    2.3780 
1667.1036    8.3910  -35.5380   37.8899    5.3480    0.2270    2.3920 
1667.2560    8.4690  -35.8860   40.1487    5.1360    0.2229    2.4050 
1667.4084    8.5150  -34.5240   44.5084    4.9240    0.2277    2.4050 
1667.5608    8.5060  -32.4470   46.7882    4.7210    0.2368    2.3940 
1667.7132    8.4720  -31.6290   53.0168    4.5190    0.2457    2.3960 
1667.8656    8.4430  -30.3770   55.4814    4.3180    0.2513    2.3990 
1668.0180    8.4140  -29.0480   52.9363    4.1170    0.2547    2.3990 
1668.1704    8.3730  -28.0250   49.6210    3.9440    0.2599    2.3930 
1668.3228    8.2010  -29.1970   45.8037    3.7830    0.2664    2.4020 
1668.4752    8.0200  -32.3000   42.2354    3.6220    0.2741    2.3690 
1668.6276    7.9250  -36.1260   39.3672    3.5030    0.2753    2.3330 
1668.7800    7.9220  -41.1610   35.9209    3.4180    0.2670    2.2880 
1668.9324    7.9280  -46.3330   31.9126    3.3330    0.2670    2.2790 
1669.0848    7.9480  -50.2710   29.8013    3.2790    0.2775    2.2690 
1669.2372    7.9650  -53.8930   27.8811    3.2490    0.2860    2.2560 
1669.3896    7.9370  -57.2270   25.6068    3.2190    0.2934    2.2450 
1669.5420    7.9070  -60.0480   25.6715    3.1800    0.2946    2.2610 
1669.6944    7.9370  -59.3880   23.4162    3.1300    0.3089    2.2790 
1669.8468    7.9550  -58.2650   20.5849    3.0360    0.3100    2.2620 
1669.9992    7.9240  -59.3930   17.2727    2.8500    0.3072    2.2260 
1670.1516    7.8690  -62.4570   16.2534    2.6290    0.2984    2.1990 
1670.3040    7.8520  -66.5421   16.2760    2.4450    0.2974    2.2140 
1670.4564    7.9560  -74.8820   11.7238    2.2580    0.3002    2.2130 
1670.6088    7.9170  -81.3480    6.4916    2.0570    0.3047    2.1930 
1670.7612    7.8790  -86.8470    3.3333    1.8560    0.3126    2.1850 
1670.9136    7.8650  -89.8060    2.7390    1.6880    0.3251    2.1690 
1671.0660    7.8910  -91.9500    1.4937    1.5310    0.3247    2.1710 
1671.2184    7.9830  -94.5240    0.8715    1.3750    0.3343    2.1740 
1671.3708    8.0050  -97.4830   -1.0778    1.2830    0.3295    2.1610 
1671.5232    8.0260 -100.6510   -5.8881    1.1970    0.3208    2.1650 
1671.6756    8.0480 -103.6650  -12.0023    1.1110    0.3233    2.1450 
1671.8280    8.0490 -105.3650  -14.0717    1.0510    0.3382    2.1590 
1671.9804    8.0500 -105.0670  -17.8279    1.0090    0.3459    2.1930 
1672.1328    8.0490 -104.5960  -21.0852    0.9670    0.3498    2.1810 
1672.2852    8.0480 -107.7580  -22.7605    0.9630    0.3537    2.1480 
1672.4376    8.0420 -111.7050  -21.8178    0.9590    0.3589    2.1420 
1672.5900    8.0370 -113.0070  -21.1260    0.9550    0.3631    2.1290 
1672.7424    8.0280 -113.4960  -19.9363    0.9510    0.3584    2.1090 
1672.8948    8.0200 -113.9510  -18.8776    0.9290    0.3661    2.0940 
1673.0472    8.0330 -114.7170  -20.3869    0.9020    0.3795    2.0800 
1673.1996    8.0450 -116.4270  -22.2171    0.8760    0.3612    2.0590 
1673.3520    8.0510 -118.1670  -24.1194    0.8730    0.3529    2.0640 
1673.5044    8.0570 -119.1870  -25.3797    0.8710    0.3545    2.0630 
1673.6568    8.0620 -120.2170  -26.2710    0.8680    0.3514    2.0720 
1673.8092    8.0680 -120.1470  -27.0992    0.8660    0.3495    2.0860 
1673.9616    8.0590 -120.0070  -25.4205    0.8630    0.3514    2.0720 
1674.1140    8.0510 -119.8670  -23.7278    0.8610    0.3501    2.0790 
1674.2664    8.0480 -119.7170  -23.1621    0.8580    0.3540    2.1000 
1674.4188    8.0440 -119.1870  -23.8404    0.8560    0.3444    2.0950 
1674.5712    8.0460 -117.9970  -23.8846    0.8900    0.3443    2.1110 
1674.7236    8.0490 -116.9770  -23.6689    0.9570    0.3514    2.1230 
1674.8760    8.0720 -116.1270  -23.3642    1.0250    0.3601    2.1310 
1675.0284    8.2010 -115.2870  -21.2695    1.0920    0.3565    2.1240 
1675.1808    8.3310 -113.6280  -18.1178    1.1870    0.3528    2.1430 
1675.3332    8.4900 -111.6980  -13.7560    1.2930    0.3492    2.1740 
1675.4856    8.7870 -108.7010   -8.4932    1.3990    0.3597    2.2090 
1675.6380    9.1190 -103.9329    1.5935    1.5110    0.3698    2.2160 
1675.7904    9.5230  -94.1778   22.9191    1.6240    0.4007    2.1880 
1675.9428   10.7440  -72.3350   42.9358    1.7550    0.4397    2.1810 
1676.0952   11.9660  -48.9761   52.2865    1.9430    0.4591    2.2200 
1676.2476   12.9710  -30.8832   50.9212    2.1320    0.4727    2.2170 
1676.4000   13.3240  -24.4621   45.4960    2.2520    0.4891    2.1490 
1676.5524   13.7780  -22.4180   41.4268    2.3430    0.5254    2.0580 
1676.7048   14.2310  -21.1330   38.9925    2.4300    0.5240    2.0000 
1676.8572   11.4150  -20.1100   37.8462    2.5170    0.4169    2.0000 
1677.0096   10.6790  -19.0630   37.7739    2.6600    0.3098    2.0010 
1677.1620   10.2430  -17.9280   37.8937    2.8040    0.2489    2.2340 
1677.3144    9.4630  -16.9590   43.7504    2.9900    0.2129    2.3950 
1677.4668    9.2770  -16.0830   50.2041    3.1810    0.1972    2.4490 
1677.6192    9.2030  -15.8430   54.8538    3.3730    0.1837    2.4690 
1677.7716    9.0870  -15.6020   58.6584    3.5710    0.1756    2.5140 
1677.9240    9.0020  -15.5300   58.1033    3.7290    0.1720    2.5330 
1678.0764    8.9720  -15.4590   56.4980    3.8390    0.1693    2.5240 
1678.2288    8.9410  -15.4750   54.3928    3.9020    0.1613    2.5280 
1678.3812    8.9390  -15.8580   56.7674    3.9500    0.1581    2.5240 
1678.5336    8.9380  -16.2410   57.0222    3.9640    0.1593    2.5160 
1678.6860    8.9360  -16.8820   58.6369    3.9790    0.1592    2.5240 
1678.8384    8.9350  -17.7580   59.3416    3.9940    0.1591    2.5180 
1678.9908    8.9260  -18.7340   57.8463    3.9820    0.1649    2.5230 
1679.1432    8.9000  -19.9260   57.0810    3.9350    0.1868    2.4940 
1679.2956    8.8730  -21.1340   55.9058    3.8880    0.2016    2.4720 
1679.4480    8.8260  -22.7330   54.0505    3.8110    0.2293    2.4450 
1679.6004    8.7780  -25.3110   51.4452    3.6800    0.2446    2.4080 
1679.7528    8.6860  -28.1710   47.9029    3.4860    0.2537    2.3590 
1679.9052    8.4180  -32.0770   41.1757    3.3250    0.2610    2.3490 
1680.0576    8.2410  -36.7830   37.4014    3.1860    0.2627    2.3450 
1680.2100    8.1590  -41.0970   35.4851    3.0440    0.2624    2.3420 
1680.3624    8.1120  -45.7570   36.5158    2.8740    0.2620    2.3340 
1680.5148    8.0660  -51.2060   37.5525    2.7030    0.2700    2.3350 
1680.6672    8.0190  -53.6530   34.5523    2.5330    0.2833    2.3280 
1680.8196    8.0040  -55.7380   30.7270    2.3630    0.2818    2.3210 
1680.9720    7.9900  -59.3170   27.6437    2.1950    0.2802    2.3360 
1681.1244    7.9750  -62.2150   27.7915    2.0320    0.2960    2.3570 
1681.2768    7.9690  -65.1940   27.0152    1.8730    0.3096    2.3750 
1681.4292    7.9630  -68.3730   23.6859    1.7210    0.3155    2.3360 
