~VERSION INFORMATION
 VERS.                 2.0:   CWLS LOG ASCII STANDARD - VERSION 2.0
 WRAP.                  NO:   SINGLE LINE PER DEPTH STEP
 CREA.                 15/04/2025 16:02:59
#CREATED USING IP VERSION 4.5.2019.2902 BY ASUS ON 15/04/2025 16:02:59
~WELL INFORMATION
#MNEM.UNIT       DATA                          DESCRIPTION MNEMONIC
#---------      ---------------------------   --------------------------
 STRT    .M         1371.6000                 : START DEPTH
 STOP    .M         1905.0000                 : STOP DEPTH
 STEP    .M         0.1524                    : STEP VALUE
 NULL    .      -999.0000                     : NULL VALUE
 DATE    .      15/04/2025                    : LAS file Creation Date
 WELL   .      ABB-035                                            : Well Name
 COM1   .      Original database: Master Database IP ABAB (Meter) : Well Comment
 COMP   .                                                         : Company
 FLD    .                                                         : Field
 UWI    .      9803035                                            : Unique Well Identifier (UWI)
 LOC    .      TWP        - Range       - Sec                     : Location
 PDAT   .      GR                                                 : Permanent Datum
 LGMEA  .      KB                                                 : Log Measured from
 DRMEA  .      KB                                                 : Drill Measured From
 KB     .      17.34                                              : KB Elevation
 DF     .      -999.2500                                          : DF Elevation
 GL     .      -999.2500                                          : GL Elevation
 RWS    .      -999                                               : Def_Rw
 WST    .      -999                                               : Def_Rwt
 PROV   .                                                         : Province
 SRVC   .      SCH                                                : Contractor
 GDAT   .      WGS 84                                             : Geodatum
 LONG   .      0                                                  : Longitude
 LATI   .      0                                                  : Latitude
 COORDIN.                                                         : Grid System
 XCOORD .                                                         : X or East-West Coordinate
 YCOORD .                                                         : Y or North-South Coordinate
~CURVE INFORMATION
#MNEM              UNIT       API CODE   Curve Type Comments
#----------  --------------- ----------  ---------- -----------
 DEPTH      .M                         : Depth       
 CALI       .in                        : Caliper     CALI
 SP         .mV                        : SP          SP
 GR         .gAPI                      : GammaRay    GR
 RT         .ohm.m                     : DeepRes     ILD
 NPHI       .ft3/ft3                   : Neutron     CNL
 RHOB       .g/cm3                     : Density     DENS
~A  DEPTH    CALI       SP        GR        RT       NPHI      RHOB   
# ...
1423.2636 -999.0000  -23.3030 -999.0000    1.1840 -999.0000 -999.0000 
1423.4160 -999.0000  -22.1650 -999.0000    1.1470 -999.0000 -999.0000 
1423.5684 -999.0000  -21.0280 -999.0000    1.1100 -999.0000 -999.0000 
1423.7208 -999.0000  -19.8900 -999.0000    1.0720 -999.0000 -999.0000 
1423.8732 -999.0000  -19.4420 -999.0000    1.0540 -999.0000 -999.0000 
1424.0256 -999.0000  -18.9940 -999.0000    1.0350 -999.0000 -999.0000 
1424.1780 -999.0000  -18.5460 -999.0000    1.0160 -999.0000 -999.0000 
1424.3304 -999.0000  -18.0980 -999.0000    0.9970 -999.0000 -999.0000 
1424.4828 -999.0000  -18.3100 -999.0000    0.9910 -999.0000 -999.0000 
1424.6352 -999.0000  -18.5230 -999.0000    0.9860 -999.0000 -999.0000 
1424.7876 -999.0000  -18.7350 -999.0000    0.9800 -999.0000 -999.0000 
1424.9400 -999.0000  -18.7070 -999.0000    0.9750 -999.0000 -999.0000 
1425.0924 -999.0000  -18.6790 -999.0000    0.9770 -999.0000 -999.0000 
1425.2448 -999.0000  -18.6510 -999.0000    0.9790 -999.0000 -999.0000 
1425.3972 -999.0000  -18.6230 -999.0000    0.9810 -999.0000 -999.0000 
1425.5496 -999.0000  -18.1890 -999.0000    0.9830 -999.0000 -999.0000 
1425.7020 -999.0000  -17.7550 -999.0000    0.9760 -999.0000 -999.0000 
1425.8544 -999.0000  -17.3220 -999.0000    0.9690 -999.0000 -999.0000 
1426.0068 -999.0000  -16.8880 -999.0000    0.9620 -999.0000 -999.0000 
1426.1592 -999.0000  -16.4540 -999.0000    0.9540 -999.0000 -999.0000 
1426.3116 -999.0000  -16.0210 -999.0000    0.9300 -999.0000 -999.0000 
1426.4640 -999.0000  -15.7520 -999.0000    0.9050 -999.0000 -999.0000 
1426.6164 -999.0000  -15.4830 -999.0000    0.8810 -999.0000 -999.0000 
1426.7688 -999.0000  -15.2140 -999.0000    0.8560 -999.0000 -999.0000 
1426.9212 -999.0000  -16.0880 -999.0000    0.8310 -999.0000 -999.0000 
1427.0736 -999.0000  -16.9620 -999.0000    0.8500 -999.0000 -999.0000 
1427.2260 -999.0000  -17.8360 -999.0000    0.8680 -999.0000 -999.0000 
1427.3784 -999.0000  -17.7690 -999.0000    0.8870 -999.0000 -999.0000 
1427.5308 -999.0000  -17.7020 -999.0000    0.9050 -999.0000 -999.0000 
1427.6832 -999.0000  -17.6350 -999.0000    0.9240 -999.0000 -999.0000 
1427.8356 -999.0000  -17.5680 -999.0000    0.9420 -999.0000 -999.0000 
1427.9880 -999.0000  -17.5010 -999.0000    0.9860 -999.0000 -999.0000 
1428.1404 -999.0000  -17.4340 -999.0000    1.0310 -999.0000 -999.0000 
1428.2928 -999.0000  -17.8910 -999.0000    1.0750 -999.0000 -999.0000 
1428.4452 -999.0000  -18.3470 -999.0000    1.1200 -999.0000 -999.0000 
1428.5976 -999.0000  -18.6220 -999.0000    1.1920 -999.0000 -999.0000 
1428.7500 -999.0000  -18.8960 -999.0000    1.2650 -999.0000 -999.0000 
1428.9024 -999.0000  -19.1710 -999.0000    1.2540 -999.0000 -999.0000 
1429.0548 -999.0000  -19.4450 -999.0000    1.2430 -999.0000 -999.0000 
1429.2072 -999.0000  -20.4640 -999.0000    1.2320 -999.0000 -999.0000 
1429.3596 -999.0000  -21.4820 -999.0000    1.1750 -999.0000 -999.0000 
1429.5120 -999.0000  -23.0250 -999.0000    1.1180 -999.0000 -999.0000 
1429.6644 -999.0000  -24.5690 -999.0000    1.0610 -999.0000 -999.0000 
1429.8168 -999.0000  -24.2320 -999.0000    1.0130 -999.0000 -999.0000 
1429.9692 -999.0000  -23.8950 -999.0000    0.9670 -999.0000 -999.0000 
1430.1216 -999.0000  -23.5580 -999.0000    0.9200 -999.0000 -999.0000 
1430.2740 -999.0000  -22.9270 -999.0000    0.8730 -999.0000 -999.0000 
1430.4264 -999.0000  -22.2970 -999.0000    0.8670 -999.0000 -999.0000 
1430.5788 -999.0000  -21.6670 -999.0000    0.8600 -999.0000 -999.0000 
1430.7312 -999.0000  -21.0360 -999.0000    0.8540 -999.0000 -999.0000 
1430.8836 -999.0000  -21.1310 -999.0000    0.8480 -999.0000 -999.0000 
1431.0360 -999.0000  -21.2260 -999.0000    0.8420 -999.0000 -999.0000 
1431.1884 -999.0000  -21.3210 -999.0000    0.8360 -999.0000 -999.0000 
1431.3408 -999.0000  -21.6540 -999.0000    0.8260 -999.0000 -999.0000 
1431.4932 -999.0000  -21.9870 -999.0000    0.8170 -999.0000 -999.0000 
1431.6456 -999.0000  -22.3200 -999.0000    0.8070 -999.0000 -999.0000 
1431.7980 -999.0000  -22.6540 -999.0000    0.7970 -999.0000 -999.0000 
1431.9504 -999.0000  -22.6210 -999.0000    0.7850 -999.0000 -999.0000 
1432.1028 -999.0000  -22.5870 -999.0000    0.7740 -999.0000 -999.0000 
1432.2552 -999.0000  -22.9600 -999.0000    0.7620 -999.0000 -999.0000 
1432.4076 -999.0000  -23.3330 -999.0000    0.7500 -999.0000 -999.0000 
1432.5600   10.5230  -22.6260 -999.0000    1.0590    0.4611 -999.0000 
1432.7124   10.6570  -23.0730   22.6420    1.0370    0.4630    2.1570 
1432.8648   10.6690  -23.3320   23.1230    1.0150    0.4650    2.1620 
1433.0172   10.4080  -23.3250   23.6017    1.0100    0.4806    2.1670 
1433.1696   10.3160  -23.3170   21.5109    1.0060    0.4854    2.1570 
1433.3220   10.3480  -22.8540   20.4822    1.0020    0.5078    2.1470 
1433.4744   10.4490  -22.4660   21.1954    1.0220    0.5174    2.1650 
1433.6268   10.4870  -22.0780   21.9096    1.0170    0.5184    2.1840 
1433.7792   10.5250  -21.6640   22.0568    1.0110    0.5073    2.1930 
1433.9316   10.4640  -21.2500   22.2041    1.0030    0.4964    2.1870 
1434.0840   10.4860  -20.9330   22.0113    0.9940    0.4863    2.1970 
1434.2364   10.5090  -20.6150   21.8185    0.9850    0.4841    2.1760 
1434.3888   10.6490  -20.3700   24.2497    0.9670    0.4504    2.1710 
1434.5412   10.7090  -20.1240   26.6820    0.9480    0.4423    2.1860 
1434.6936   10.7690  -20.0430   27.0542    0.9100    0.4510    2.2010 
1434.8460   10.6770  -19.9620   24.9954    0.8720    0.4647    2.1840 
1434.9984   10.5860  -19.7110   24.4996    0.8330    0.4822    2.1660 
1435.1508   10.6840  -19.4590   24.0038    0.8180    0.5006    2.1800 
1435.3032   10.7830  -19.0110   26.3571    0.8030    0.5215    2.1910 
1435.4556   10.8910  -18.9150   28.7113    0.7910    0.5478    2.1820 
1435.6080   10.7780  -18.8190   24.3305    0.7780    0.5517    2.1730 
1435.7604   10.6270  -18.9640   24.7157    0.7660    0.5258    2.1800 
1435.9128   10.6580  -19.1090   25.0999    0.7770    0.5044    2.1860 
1436.0652   10.7140  -19.6100   26.3322    0.7880    0.5224    2.1930 
1436.2176   10.7230  -20.0070   27.5634    0.7980    0.5363    2.1810 
1436.3700   10.8110  -20.4040   26.6456    0.8160    0.5181    2.1730 
1436.5224   10.9000  -21.1010   25.7278    0.8340    0.5278    2.1660 
1436.6748   10.9120  -21.5480   25.4491    0.8520    0.5376    2.1440 
1436.8272   10.7790  -21.4910   24.5183    0.8700    0.5432    2.1380 
1436.9796   10.6200  -21.4340   23.5885    0.8630    0.5340    2.1550 
1437.1320   10.4620  -20.9870   21.9807    0.8570    0.5114    2.1710 
1437.2844   10.4590  -20.5410   20.3729    0.8500    0.4870    2.1760 
1437.4368   10.4550  -20.3230   21.3022    0.8470    0.4733    2.1960 
1437.5892   10.4360  -20.1060   22.2314    0.8440    0.4703    2.2110 
1437.7416   10.4170  -19.9010   22.9546    0.8400    0.4482    2.2040 
1437.8940   10.3320  -19.6960   21.1318    0.8410    0.4492    2.1920 
1438.0464   10.2940  -19.6760   19.1751    0.8420    0.4364    2.2040 
1438.1988   10.1250  -19.7390   17.2183    0.8420    0.4329    2.2340 
1438.3512   10.1390  -19.8020   17.0635    0.8400    0.4085    2.2650 
1438.5036   10.0940  -19.9280   16.0347    0.8380    0.4159    2.2390 
1438.6560    9.9830  -19.2950   15.0059    0.8360    0.4295    2.2140 
1438.8084    9.9340  -18.6610   14.3991    0.8330    0.4291    2.1900 
1438.9608    9.8860  -18.2510   13.7924    0.8380    0.3752    2.1660 
1439.1132    9.8210  -17.8420   13.1096    0.8420    0.3628    2.2330 
1439.2656    9.7550  -17.5210   10.0128    0.8470    0.3504    2.2790 
1439.4180    9.3210  -17.2000    6.5630    0.8620    0.3396    2.2990 
1439.5704    9.2130  -16.8710    3.1133    0.8770    0.3393    2.3080 
1439.7228    8.8610  -16.5420   -0.8175    0.8920    0.3458    2.2960 
1439.8752    8.6840  -16.4350   -1.5413    0.9140    0.3558    2.2720 
1440.0276    8.6480  -16.3270    1.8429    0.9360    0.3701    2.2480 
1440.1800    8.6650  -17.1970    0.4122    0.9290    0.3916    2.1780 
1440.3324    8.8250  -17.8720    0.3644    0.9230    0.3904    2.2100 
