~VERSION INFORMATION
 VERS.                 2.0:   CWLS LOG ASCII STANDARD - VERSION 2.0
 WRAP.                  NO:   SINGLE LINE PER DEPTH STEP
 CREA.                 15/04/2025 16:02:59
#CREATED USING IP VERSION 4.5.2019.2902 BY ASUS ON 15/04/2025 16:02:59
~WELL INFORMATION
#MNEM.UNIT       DATA                          DESCRIPTION MNEMONIC
#---------      ---------------------------   --------------------------
 STRT    .M         1371.6000                 : START DEPTH
 STOP    .M         1905.0000                 : STOP DEPTH
 STEP    .M         0.1524                    : STEP VALUE
 NULL    .      -999.0000                     : NULL VALUE
 DATE    .      15/04/2025                    : LAS file Creation Date
 WELL   .      ABB-035                                            : Well Name
 COM1   .      Original database: Master Database IP ABAB (Meter) : Well Comment
 COMP   .                                                         : Company
 FLD    .                                                         : Field
 UWI    .      9803035                                            : Unique Well Identifier (UWI)
 LOC    .      TWP        - Range       - Sec                     : Location
 PDAT   .      GR                                                 : Permanent Datum
 LGMEA  .      KB                                                 : Log Measured from
 DRMEA  .      KB                                                 : Drill Measured From
 KB     .      17.34                                              : KB Elevation
 DF     .      -999.2500                                          : DF Elevation
 GL     .      -999.2500                                          : GL Elevation
 RWS    .      -999                                               : Def_Rw
 WST    .      -999                                               : Def_Rwt
 PROV   .                                                         : Province
 SRVC   .      SCH                                                : Contractor
 GDAT   .      WGS 84                                             : Geodatum
 LONG   .      0                                                  : Longitude
 LATI   .      0                                                  : Latitude
 COORDIN.                                                         : Grid System
 XCOORD .                                                         : X or East-West Coordinate
 YCOORD .                                                         : Y or North-South Coordinate
~CURVE INFORMATION
#MNEM              UNIT       API CODE   Curve Type Comments
#----------  --------------- ----------  ---------- -----------
 DEPTH      .M                         : Depth       
 CALI       .in                        : Caliper     CALI
 SP         .mV                        : SP          SP
 GR         .gAPI                      : GammaRay    GR
 RT         .ohm.m                     : DeepRes     ILD
 NPHI       .ft3/ft3                   : Neutron     CNL
 RHOB       .g/cm3                     : Density     DENS
~A  DEPTH    CALI       SP        GR        RT       NPHI      RHOB   
# ...
1578.2544   11.4310  -17.0830   35.5781    2.0010    0.2949    2.4070 
1578.4068   11.3990  -17.0420   33.9035    2.0570    0.2685    2.4550 
1578.5592   11.0640  -17.2550   29.2569    2.1270    0.2421    2.3880 
1578.7116   10.8660  -17.5930   22.9763    2.2110    0.2157    2.3510 
1578.8640   10.9720  -17.2960   19.2247    2.2500    0.2086    2.4290 
1579.0164   11.0780  -16.7900   20.1801    2.2720    0.2132    2.4690 
1579.1688   11.1320  -16.2830   23.8795    2.2870    0.2299    2.4640 
1579.3212   11.1420  -15.7770   29.2469    2.3000    0.2655    2.4310 
1579.4736   11.0660  -16.3200   30.8972    2.2910    0.2668    2.4080 
1579.6260   11.0070  -16.3640   31.3986    2.2870    0.2511    2.4410 
1579.7784   10.9470  -16.4070   33.1570    2.3160    0.2413    2.4550 
1579.9308   10.9250  -16.3510   37.0014    2.3660    0.2166    2.4520 
1580.0832   10.9020  -16.2060   39.0658    2.4810    0.1963    2.4550 
1580.2356   10.8600  -16.2660   37.7422    2.5960    0.1917    2.4530 
1580.3880   10.8120  -17.1860   36.6276    2.7200    0.1973    2.4460 
1580.5404   10.7640  -18.3090   29.7900    2.8450    0.2081    2.4310 
1580.6928   10.6960  -20.3300   21.9554    3.0240    0.2088    2.4250 
1580.8452   10.6260  -22.6970   17.6927    3.1080    0.2080    2.4120 
1580.9976   10.5840  -25.5680   18.3732    3.1180    0.2162    2.4150 
1581.1500   10.5970  -28.8550   25.0015    3.1280    0.2368    2.3920 
1581.3024   10.7350  -33.7800   35.0389    3.1710    0.2734    2.3540 
1581.4548   10.8720  -39.6850   42.2902    3.2640    0.2906    2.3070 
1581.6072   11.0900  -40.7360   42.9316    3.3310    0.2959    2.3680 
1581.7596   11.2520  -37.9120   36.9430    3.3620    0.2639    2.4090 
1581.9120   11.4150  -32.4720   24.6435    3.4000    0.2433    2.4190 
1582.0644   11.4490  -31.8600   17.7969    3.4500    0.2251    2.4270 
1582.2168   11.4740  -34.5660   10.2213    3.5090    0.2231    2.4210 
1582.3692   11.4990  -36.8960    6.6766    3.5680    0.2274    2.4320 
1582.5216   11.5230  -38.9220    7.1120    3.5480    0.2553    2.4270 
1582.6740   11.5460  -40.0890   11.4174    3.3960    0.2653    2.4020 
1582.8264   11.5330  -41.2450   15.3998    3.0990    0.2809    2.3740 
1582.9788   11.5030  -41.3250   20.3542    2.8370    0.3033    2.3370 
1583.1312   11.4730  -41.4060   26.8686    2.6420    0.3217    2.3090 
1583.2836   11.5140  -41.4860   35.5099    2.5030    0.3475    2.2930 
1583.4360   11.6510  -41.7910   37.7674    2.3660    0.3312    2.3090 
1583.5884   11.7930  -42.3980   40.5988    2.2650    0.3302    2.3100 
1583.7408   11.9480  -43.8460   45.1742    2.1650    0.3337    2.3320 
1583.8932   12.0660  -45.2950   54.1245    2.0810    0.3375    2.3620 
1584.0456   12.1890  -43.2680   60.7718    2.0610    0.3364    2.3850 
1584.1980   12.3120  -38.2540   60.9393    2.0630    0.3229    2.4050 
1584.3504   12.5150  -32.1620   61.1167    2.0770    0.3111    2.4170 
1584.5028   12.7270  -27.5240   63.3941    2.0800    0.3235    2.4280 
1584.6552   12.4040  -25.0310   65.4915    2.0830    0.3230    2.4310 
1584.8076   12.1900  -23.3650   64.1689    2.0850    0.3226    2.4360 
1584.9600   12.1680  -21.8550   62.9863    2.0420    0.3255    2.4450 
1585.1124   12.1450  -20.0010   61.3737    1.9950    0.3336    2.4550 
1585.2648   12.1490  -19.0440   59.7611    1.9930    0.3711    2.4510 
1585.4172   12.1760  -19.2640   64.1384    1.9900    0.3856    2.4330 
1585.5696   12.6790  -19.2050   63.3158    2.0370    0.3605    2.4030 
1585.7220   12.7680  -18.4820   59.4532    2.1150    0.3354    2.3960 
1585.8744   13.0590  -17.7590   55.6606    2.2100    0.3103    2.4440 
1586.0268   12.2710  -20.0040   49.3140    2.3130    0.2852    2.4950 
1586.1792   12.1840  -20.1850   44.1645    2.4410    0.2688    2.5320 
1586.3316   12.0970  -21.1190   44.9528    2.6070    0.2648    2.5340 
1586.4840   12.0780  -21.9070   44.0582    2.8090    0.2772    2.5370 
1586.6364   12.0580  -22.2450   40.4895    3.0370    0.2693    2.5360 
1586.7888   12.0470  -22.1810   36.1899    3.2670    0.2524    2.5420 
1586.9412   12.0360  -21.3940   31.2083    3.4540    0.2378    2.5490 
1587.0936   12.0240  -20.6070   25.2307    3.6240    0.2253    2.5600 
1587.2460   12.0310  -20.0340   18.7521    3.7730    0.2103    2.5700 
1587.3984   12.0380  -19.6540    8.6865    3.9110    0.1801    2.5610 
1587.5508   12.0590  -19.2790    0.1110    4.0400    0.1605    2.5480 
1587.7032   12.0810  -19.6840   -1.6427    4.1020    0.1622    2.5310 
1587.8556   12.1020  -20.0890   -2.2913    4.1350    0.1708    2.5100 
1588.0080   12.1260  -20.1140   -4.1709    4.0620    0.1722    2.5390 
1588.1604   12.1490  -19.9300   -2.4585    3.8770    0.1681    2.5520 
1588.3128   12.1740  -19.7460   -1.2542    3.6600    0.1716    2.5340 
1588.4652   12.1970  -19.5280    1.2042    3.4980    0.1742    2.5270 
1588.6176   12.2210  -19.1600    5.1466    3.3940    0.1814    2.5370 
1588.7700   12.2380  -18.5010   11.6200    3.3100    0.1894    2.5360 
1588.9224   12.2540  -17.4900   14.1164    3.2400    0.1951    2.5250 
1589.0748   12.2700  -16.7390   13.2708    3.1720    0.1959    2.5050 
1589.2272   12.2860  -16.0240   10.0842    3.1170    0.1918    2.5200 
1589.3796   12.2880  -15.5440    5.0146    3.0740    0.1888    2.5070 
1589.5320   12.2900  -15.9770    1.7031    3.0630    0.1917    2.5000 
1589.6844   12.2920  -16.4110    6.3734    3.0530    0.2126    2.4870 
1589.8368   12.2900  -16.6640   12.7937    3.0430    0.2473    2.4700 
1589.9892   12.2900  -16.9170   15.8781    3.0570    0.2731    2.4770 
1590.1416   12.2940  -17.3200   17.1655    3.1040    0.2906    2.4590 
1590.2940   12.2990  -17.8820   18.3559    3.1520    0.2905    2.3990 
1590.4464   12.3070  -18.4440   16.8993    3.1960    0.2782    2.4240 
1590.5988   12.3150  -18.5200   15.1967    3.2380    0.2543    2.4540 
1590.7512   12.3700  -18.3360   16.4551    3.2810    0.2392    2.4650 
1590.9036   12.2650  -18.4910   18.5015    3.3430    0.2317    2.4840 
1591.0560   12.1300  -18.6400   20.7619    3.4180    0.2277    2.4640 
1591.2084   12.0380  -18.6110   22.9762    3.4920    0.2327    2.4920 
1591.3608   11.8690  -18.4920   24.3696    3.5730    0.2356    2.4900 
1591.5132   11.6820  -18.3730   23.3120    3.6580    0.2367    2.4700 
1591.6656   11.7950  -18.2720   22.4504    3.7430    0.2326    2.4390 
1591.8180   11.7540  -18.1830   22.3858    3.8640    0.2204    2.4360 
1591.9704   11.6310  -18.0950   21.0902    4.0030    0.2069    2.4960 
1592.1228   11.6800  -18.0080   16.4246    4.1430    0.1930    2.5290 
1592.2752   11.7390  -18.0050   12.6140    4.2830    0.1837    2.5560 
1592.4276   11.7760  -18.0030   11.8734    4.4000    0.1750    2.5540 
1592.5800   11.8140  -18.1120    7.4318    4.5010    0.1721    2.5530 
1592.7324   11.7440  -18.2960    2.4252    4.5740    0.1697    2.5430 
1592.8848   11.5980  -20.0630   -2.1065    4.5870    0.1659    2.5530 
1593.0372   11.4440  -22.0820   -5.9371    4.6010    0.1616    2.5400 
1593.1896   11.3480  -25.1140   -8.4407    4.6140    0.1576    2.5340 
1593.3420   11.2930  -27.7090   -9.3543    4.6280    0.1581    2.5240 
1593.4944   11.2370  -30.3330  -11.1169    4.6460    0.1623    2.5150 
1593.6468   11.2040  -31.9900  -11.1995    4.6990    0.1670    2.5110 
1593.7992   11.1700  -33.7970   -8.6851    4.7520    0.1665    2.5070 
1593.9516   11.1370  -35.8200   -9.5427    4.8030    0.1628    2.5230 
1594.1040   11.1140  -37.6680  -13.7464    4.8500    0.1592    2.5520 
1594.2564   11.0910  -39.3530  -16.2000    4.8980    0.1559    2.5630 
1594.4088   11.0690  -40.7890  -15.5086    4.9320    0.1523    2.5610 
1594.5612   11.0480  -42.0780  -11.4292    4.9300    0.1491    2.5510 
1594.7136   11.0300  -41.1940   -7.4108    4.8700    0.1496    2.5410 
1594.8660   11.0130  -39.5460   -4.0484    4.6650    0.1467    2.5360 
1595.0184   10.9960  -37.3400   -1.8060    4.3110    0.1465    2.5410 
1595.1708   11.0020  -33.2420    0.7054    3.9230    0.1463    2.5330 
1595.3232   11.0090  -29.7630    5.6198    3.5640    0.1550    2.5310 
