~VERSION INFORMATION
 VERS.                 2.0:   CWLS LOG ASCII STANDARD - VERSION 2.0
 WRAP.                  NO:   SINGLE LINE PER DEPTH STEP
 CREA.                 15/04/2025 16:02:59
#CREATED USING IP VERSION 4.5.2019.2902 BY ASUS ON 15/04/2025 16:02:59
~WELL INFORMATION
#MNEM.UNIT       DATA                          DESCRIPTION MNEMONIC
#---------      ---------------------------   --------------------------
 STRT    .M         1371.6000                 : START DEPTH
 STOP    .M         1905.0000                 : STOP DEPTH
 STEP    .M         0.1524                    : STEP VALUE
 NULL    .      -999.0000                     : NULL VALUE
 DATE    .      15/04/2025                    : LAS file Creation Date
 WELL   .      ABB-035                                            : Well Name
 COM1   .      Original database: Master Database IP ABAB (Meter) : Well Comment
 COMP   .                                                         : Company
 FLD    .                                                         : Field
 UWI    .      9803035                                            : Unique Well Identifier (UWI)
 LOC    .      TWP        - Range       - Sec                     : Location
 PDAT   .      GR                                                 : Permanent Datum
 LGMEA  .      KB                                                 : Log Measured from
 DRMEA  .      KB                                                 : Drill Measured From
 KB     .      17.34                                              : KB Elevation
 DF     .      -999.2500                                          : DF Elevation
 GL     .      -999.2500                                          : GL Elevation
 RWS    .      -999                                               : Def_Rw
 WST    .      -999                                               : Def_Rwt
 PROV   .                                                         : Province
 SRVC   .      SCH                                                : Contractor
 GDAT   .      WGS 84                                             : Geodatum
 LONG   .      0                                                  : Longitude
 LATI   .      0                                                  : Latitude
 COORDIN.                                                         : Grid System
 XCOORD .                                                         : X or East-West Coordinate
 YCOORD .                                                         : Y or North-South Coordinate
~CURVE INFORMATION
#MNEM              UNIT       API CODE   Curve Type Comments
#----------  --------------- ----------  ---------- -----------
 DEPTH      .M                         : Depth       
 CALI       .in                        : Caliper     CALI
 SP         .mV                        : SP          SP
 GR         .gAPI                      : GammaRay    GR
 RT         .ohm.m                     : DeepRes     ILD
 NPHI       .ft3/ft3                   : Neutron     CNL
 RHOB       .g/cm3                     : Density     DENS
~A  DEPTH    CALI       SP        GR        RT       NPHI      RHOB   
# ...
1526.5908   11.1700  -55.4670   53.4459    4.4850    0.2018    2.4490 
1526.7432   11.1680  -50.5660   51.8754    5.3180    0.1942    2.4770 
1526.8956   11.1660  -49.3230   44.6848    6.2270    0.1851    2.4990 
1527.0480   11.0810  -51.2000   40.3912    7.1240    0.1703    2.5160 
1527.2004   10.9960  -56.7110   37.6276    7.8550    0.1632    2.5160 
1527.3528   10.9340  -61.0190   33.8770    8.4730    0.1632    2.4920 
1527.5052   10.8720  -64.3800   28.3484    9.0130    0.1736    2.4660 
1527.6576   10.8300  -67.3400   25.3987    9.3470    0.1861    2.4360 
1527.8100   10.7880  -69.8530   23.6611    9.4730    0.2091    2.4210 
1527.9624   10.7410  -71.3020   21.5905    9.4570    0.2095    2.3990 
1528.1148   10.6930  -71.9830   20.5809    9.2330    0.1898    2.4050 
1528.2672   10.6480  -72.4900   18.9033    8.9550    0.1716    2.4270 
1528.4196   10.6030  -73.4940   16.8357    8.7540    0.1613    2.4660 
1528.5720   10.5640  -74.2400   15.0221    8.5490    0.1576    2.4820 
1528.7244   10.5470  -75.1410   13.2645    8.3820    0.1540    2.4690 
1528.8768   10.5290  -75.6190   12.0979    8.2530    0.1602    2.4560 
1529.0292   10.5110  -75.3230   13.4553    8.0740    0.1636    2.4470 
1529.1816   10.5030  -74.1970   17.1256    7.7810    0.1659    2.4350 
1529.3340   10.4960  -72.1830   15.1010    7.3800    0.1622    2.4160 
1529.4864   10.4910  -70.1580   11.4754    6.9130    0.1548    2.4290 
1529.6388   10.4870  -65.1370    7.9268    6.3940    0.1477    2.4700 
1529.7912   10.4830  -57.8440    4.9312    5.9630    0.1455    2.4950 
1529.9436   10.4840  -49.5390    5.5416    5.6800    0.1466    2.4890 
1530.0960   10.4850  -41.7380    8.7640    5.4090    0.1476    2.4970 
1530.2484   10.4860  -33.9470   12.3774    5.2510    0.1479    2.4990 
1530.4008   10.4870  -27.0280   11.4448    5.1120    0.1475    2.5020 
1530.5532   10.4910  -23.7540    8.0712    4.9470    0.1464    2.5120 
1530.7056   10.4940  -22.5600    5.3285    4.7760    0.1447    2.5100 
1530.8580   10.4980  -23.0100    3.4689    4.6010    0.1422    2.4980 
1531.0104   10.5060  -23.7700    6.2153    4.5050    0.1445    2.4920 
1531.1628   10.5140  -23.9490   12.4437    4.5110    0.1487    2.4920 
1531.3152   10.5230  -22.6010   15.6301    4.6010    0.1545    2.4970 
1531.4676   10.5310  -21.5460   16.9674    4.6650    0.1544    2.5070 
1531.6200   10.5450  -21.4880    7.0189    4.6860    0.1519    2.5150 
1531.7724   10.5580  -24.1560   -1.5967    4.7080    0.1469    2.5240 
1531.9248   10.5720  -29.0030   -6.1773    4.7210    0.1431    2.5110 
1532.0772   10.5860  -35.1570   -8.1570    4.8630    0.1416    2.5070 
1532.2296   10.6020  -40.5070  -12.7836    4.9680    0.1491    2.4920 
1532.3820   10.6190  -48.9330  -15.3552    5.0410    0.1638    2.4620 
1532.5344   10.6350  -56.0160  -15.5338    5.0350    0.1927    2.4400 
1532.6868   10.6570  -60.9480  -13.9234    4.9680    0.2159    2.4300 
1532.8392   10.6840  -63.9330  -13.4180    4.8670    0.2163    2.4260 
1532.9916   10.7140  -65.1280  -15.4806    4.7790    0.2091    2.4280 
1533.1440   10.7450  -65.8030  -16.6242    4.7110    0.1980    2.4280 
1533.2964   10.8190  -64.5780  -15.5858    4.7940    0.1886    2.4400 
1533.4488   10.8930  -61.6890  -11.7354    4.9100    0.1745    2.4600 
1533.6012   10.9380  -56.7720   -5.3291    5.1120    0.1588    2.4910 
1533.7536   10.9840  -50.4970   -1.5907    5.3100    0.1498    2.5170 
1533.9060   11.0090  -42.0380   -2.6263    5.3910    0.1395    2.5200 
1534.0584   11.0350  -34.2230   -6.2499    5.4710    0.1257    2.5100 
1534.2108   11.0600  -30.3380   -9.0775    5.4590    0.1189    2.5150 
1534.3632   11.0730  -29.8320  -10.7361    5.4010    0.1213    2.5240 
1534.5156   11.0870  -29.0350   -9.2247    5.3070    0.1256    2.5330 
1534.6680   11.1000  -27.0090   -6.3563    5.1730    0.1250    2.5460 
1534.8204   11.1140  -24.9260   -5.8559    4.9980    0.1245    2.5530 
1534.9728   11.1270  -22.5340   -5.5715    4.7970    0.1222    2.5620 
1535.1252   11.1370  -20.2990   -6.5452    4.5820    0.1249    2.5640 
1535.2776   11.1470  -18.2920   -7.4178    4.3620    0.1256    2.5660 
1535.4300   11.1560  -17.1870   -8.1164    4.1110    0.1253    2.5700 
1535.5824   11.1660  -16.2880   -7.7160    3.8580    0.1264    2.5790 
1535.7348   11.1850  -15.8820   -5.6696    3.5960    0.1370    2.5880 
1535.8872   11.2040  -15.3790   -3.6922    3.4030    0.1511    2.5720 
1536.0396   11.2240  -14.8390   -1.9938    3.2790    0.1624    2.5450 
1536.1920   11.2480  -14.3930   -1.9524    3.2290    0.1740    2.5260 
1536.3444   11.2730  -14.4210    0.7270    3.2370    0.1860    2.5060 
1536.4968   11.2970  -15.2640    1.8633    3.2540    0.1898    2.4820 
1536.6492   11.3220  -16.2850    1.9347    3.2940    0.1832    2.4670 
1536.8016   11.3560  -17.5740   -1.0939    3.3390    0.1729    2.4790 
1536.9540   11.3910  -19.8710   -5.5515    3.3890    0.1626    2.5340 
1537.1064   11.4260  -23.3560   -8.0071    3.5350    0.1559    2.5530 
1537.2588   11.4600  -26.1230   -6.5757    3.7230    0.1751    2.5620 
1537.4112   11.5080  -27.1910   -1.7583    3.8120    0.1820    2.5510 
1537.5636   11.5550  -25.3460   -0.8049    3.8230    0.1792    2.5320 
1537.7160   11.6030  -22.6220   -5.1205    3.7920    0.1764    2.4930 
1537.8684   11.6480  -21.7670   -9.9911    3.5590    0.1717    2.4950 
1538.0208   11.6930  -21.7350  -12.6398    3.4010    0.1830    2.4820 
1538.1732   11.7380  -22.5460  -11.9844    3.3000    0.1981    2.4850 
1538.3256   11.7620  -23.2560  -11.3660    3.1990    0.2114    2.4720 
1538.4780   11.7860  -24.4220  -12.5146    3.0990    0.2095    2.4570 
1538.6304   11.7960  -25.6900  -13.4992    2.9280    0.2075    2.4500 
1538.7828   11.8060  -26.7020  -13.2758    2.7770    0.2086    2.4520 
1538.9352   11.7850  -26.5310  -10.8804    2.6290    0.2130    2.4700 
1539.0876   11.7640  -25.2140   -8.4860    2.5090    0.2188    2.4910 
1539.2400   11.6160  -23.8980   -6.3506    2.4150    0.2252    2.5000 
1539.3924   11.6000  -22.3160   -4.6922    2.3300    0.2224    2.5020 
1539.5448   11.5760  -20.4530   -5.4719    2.2840    0.2147    2.4990 
1539.6972   11.5410  -19.7780   -7.1655    2.2380    0.2073    2.4920 
1539.8496   11.5050  -19.2980   -7.4961    2.1930    0.2034    2.4960 
1540.0020   11.4640  -19.4430   -5.2867    2.1720    0.2063    2.5070 
1540.1544   11.4220  -19.5370   -2.6793    2.1620    0.2064    2.5090 
1540.3068   11.3760  -18.5240   -3.1339    2.1510    0.2038    2.4940 
1540.4592   11.3300  -17.5120   -3.0405    2.1590    0.2001    2.4870 
1540.6116   11.2840  -16.4990   -2.4941    2.1740    0.1958    2.4860 
1540.7640   11.2380  -15.5910    1.0313    2.1950    0.1919    2.4950 
1540.9164   11.1930  -14.9520    3.7706    2.2220    0.1880    2.5060 
1541.0688   11.1370  -14.3120    4.1210    2.2530    0.1809    2.5130 
1541.2212   11.0820  -13.7900    1.9784    2.3380    0.1737    2.5200 
1541.3736   11.0260  -13.5370    1.0618    2.4480    0.1660    2.5280 
1541.5260   10.9780  -13.2840    3.0992    2.6040    0.1572    2.5320 
1541.6784   10.9300  -13.2670    4.6426    2.7710    0.1579    2.5360 
1541.8308   10.8840  -13.2490    3.7590    2.9470    0.1522    2.5290 
1541.9832   10.8370  -13.2320    2.6934    3.1230    0.1464    2.5410 
1542.1356   10.7940  -13.5910    0.3758    3.3040    0.1382    2.5450 
1542.2880   10.7510  -13.9590    0.7222    3.4870    0.1394    2.5510 
1542.4404   10.7250  -14.3280    2.0255    3.6670    0.1428    2.5560 
1542.5928   10.6990  -14.9380    1.8439    3.8290    0.1456    2.5610 
1542.7452   10.6730  -15.7670   -3.1187    3.9820    0.1468    2.5540 
1542.8976   10.6510  -16.5950   -5.2553    4.0860    0.1410    2.5430 
1543.0500   10.6290  -17.3820   -7.5599    4.1070    0.1346    2.5350 
1543.2024   10.6070  -17.6710   -9.3025    4.0810    0.1337    2.5320 
1543.3548   10.5920  -17.9600   -9.9171    4.0310    0.1404    2.5220 
1543.5072   10.5770  -17.3230   -9.4797    3.9440    0.1409    2.5160 
1543.6596   10.5630  -16.5630  -11.7403    3.8390    0.1413    2.5140 
