~Version Information Block
VERS .                  2.0:  CWLS LOG ASCII STANDARD - VERSION 2.0
WRAP .                   NO:  One line per depth step
~Well Information Block
#MNEM.UNIT        Data Type   Information
#---------- ----------------  -----------
STRT .M          1768.14480:  START DEPTH
STOP .M          2733.75120:  STOP DEPTH
STEP .M             0.15240:  STEP
NULL .              -999.25:  NULL VALUE
COMP .                     :  COMPANY
WELL .              BNG-056:  WELL
FLD  .                     :  FIELD
LOC  .                     :  LOCATION
CTRY .                     :  COUNTRY
STAT .                     :  STATE
CNTY .                     :  COUNTY
SRVC .                     :  SERVICE COMPANY
DATE .                     :  DATE
API  .                     :  API NUMBER
UWI  .                     :  UNIQUE WELL ID
~Curve Information Block
#MNEM.UNIT         API CODE   Curve Description
#---------- ----------------  -----------------
DEPTH.M                    :  
ALCDLC.G/CC                 :  ALD LCRB Comp Density
ALDD .PTPM                 :  ALD Data Density
DGDD .PTPM                 :  DGR Data Density
DGRCC.GAPI                 :  DGR Comb Gamma Ray BCorr
EWDD .PTPM                 :  EWR Data Density
EWTEMP.DEGC                 :  EWR Temperature
EWXT .HR                   :  EWR Formation Exp Time
R09PC.OHMM                 :  9in Phase Resistivity BC
R15PC.OHMM                 :  15in Phase Resistivity BC
R27PC.OHMM                 :  27in Phase Resistivity BC
R39PC.OHMM                 :  39in Phase Resistivity BC
ROPA .M/HR                 :  Avg Rate of Penetration
TNDD .PTPM                 :  CTN Data Density
TNPL .V/V                  :  CTN Porosity Limestone
TNPS .V/V                  :  CTN Porosity Sandstone
~Parameter Information Block
#MNEM.UNIT            Value   Description
#---------- ----------------  -----------
PROJECT.     ZZZ_STUDY@PETROPISIK:  
SET  .      LWD_8_5_RM_TRIM:  
~Other Information Block
# 
~A       DEPTH         ALCDLC           ALDD           DGDD          DGRCC           EWDD         EWTEMP           EWXT          R09PC          R15PC          R27PC          R39PC           ROPA           TNDD           TNPL           TNPS 
# ...
    2524.65840         2.5963        15.7581        27.5273       137.8433        17.4624        96.4355         1.4431        15.9133        19.0594        22.2965        28.5461        21.2104         9.7837       0.139032       0.182538
    2524.81080         2.5873        15.3649       100.5169        97.8364        18.9147        96.4355         1.4446        15.5355        19.0166        22.3386        29.6129        18.9253        12.7317       0.136250       0.179850
    2524.96320         2.5162        15.6261       147.0136        71.7872        26.3243        96.4355         1.4608        13.9855        19.2125        23.4451        29.8889        23.0159        18.3603       0.136486       0.180078
    2525.11560         2.3846        15.1254        31.5673        48.5992        19.4337        96.4355         1.5203        14.1904        24.2518        29.4579        34.3014        28.2999        15.7717       0.130203       0.173703
    2525.26800         2.3141        15.1523         9.8268        45.2988        17.8605        96.4355         1.5475        16.4397        32.6020        37.3269        40.0325        28.0837        16.6181       0.111956       0.155432
    2525.42040         2.3280        15.2514        12.1480        38.5883        79.8848        96.4355         1.5515        18.2984        32.8207        37.4386        38.4465        27.9786        16.8096       0.103715       0.146988
    2525.57280         2.3881        15.0027        19.1765        45.3165       279.7168        96.4355         1.5588        16.6349        25.3370        30.9607        32.9166        27.7319        16.7382       0.101186       0.144331
    2525.72520         2.4265        14.5908        20.1052        53.3265        78.8701        96.4355         1.5612        16.7050        24.6968        29.1718        31.4453        26.0148        17.0541       0.107985       0.151368
    2525.87760         2.4429        15.6414        15.3781        57.9749        12.8594        96.4355         1.5609        18.1796        24.6719        28.0710        30.7706        24.7560        16.6473       0.107170       0.150434
    2526.03000         2.4534        16.1563        16.3461        60.2236        29.3391        96.4355         1.5675        14.9825        20.1673        23.2265        25.1229        24.9073        16.3380       0.099020       0.142100
    2526.18240         2.4414        16.6572        15.8502        51.7684        99.1955        96.4355         1.5953         5.0307         7.1636         9.1458        11.6858        24.1406        16.9640       0.097662       0.140683
    2526.33480         2.5012        15.1029        16.0426        58.1926       134.4317        96.4355         1.6073         3.4606        25.3310        11.0250        14.1202        22.2573        15.2662       0.103226       0.146419
    2526.48720         2.6126        15.0347        16.2675        92.4019        26.7007        96.4355         1.6272         7.7071       245.9270        39.2905        48.6133        22.1890        15.1637       0.120034       0.163534
    2526.63960         2.6798        15.4973        16.5028       126.5272        10.3924        96.4355         1.6389        14.6969       545.1653        68.2115        92.6071        23.4119        15.7601       0.141698       0.185146
    2526.79200         2.6951        15.5607        16.4148       146.0911        10.6295        96.4355         1.6372         9.7443        70.1147        28.2707        48.7360        23.0576        15.7808       0.159708       0.202980
    2526.94440         2.6475        15.5019        15.7651       155.1286        11.3451        96.4355         1.6370        11.0599        17.6332        23.5962        39.4203        22.8785        15.7126       0.161294       0.204494
    2527.09680         2.6407        14.9843        16.1157       156.4903        16.3292        96.4355         1.6377        13.9988        13.9231        21.0279        31.2275        23.3695        16.0226       0.156310       0.199573
    2527.24920         2.6306        13.2860        16.5087       152.1761        17.2281        96.4355         1.6386        15.4164        15.6647        18.5452        26.0011        23.0117        15.9639       0.150108       0.193508
    2527.40160         2.6287        12.1265        18.2805       145.5227        19.0491        96.4355         1.6406        16.2507        17.3726        16.2393        22.1063        22.2750        16.2329       0.148034       0.191434
    2527.55400         2.6332        11.9412        19.1891       143.1928        28.2517        96.4355         1.6435        16.6239        17.8310        16.5442        20.5970        21.6822        16.6193       0.147584       0.190984
    2527.70640         2.6350        11.2506        18.1681       150.9182        19.3578        96.4355         1.6959        16.5234        17.8729        17.1363        19.7240        21.8396        16.1194       0.153032       0.196394
    2527.85880         2.6334        10.9320        19.6277       154.2884        10.4961        96.4355         1.8818        16.3404        17.6539        17.7240        20.1438        22.4570        16.6051       0.159007       0.202268
    2528.01120         2.6396        11.1629        19.9670       154.4068        15.1757        96.4355         2.0372        16.4796        18.1063        17.9763        20.7137        22.9361        17.0408       0.161867       0.205067
    2528.16360         2.6347        10.9263        20.1625       157.2569        17.5163        96.4355         2.0376        16.5571        18.1940        18.0127        20.7916        23.1671        16.1135       0.162442       0.205642
    2528.31600         2.6367        10.7277        20.7933       157.7260       107.9187        96.4355         2.0454        16.9124        18.5527        18.4214        21.3793        22.8438        15.6599       0.164128       0.207328
    2528.46840         2.6397        11.3972        25.3259       153.1891       196.2426        96.4355         2.0513        17.3235        19.5629        18.8947        22.2758        22.2519        15.7387       0.163054       0.206299
    2528.62080         2.6392        11.4669        77.8964       150.4819       331.4109        96.4355         2.0586        17.6812        20.2460        19.3474        23.0004        21.9161        15.5585       0.160244       0.203497
    2528.77320         2.6318        10.7995        95.2473       151.4115       400.4100        96.2104         2.1077        18.3598        20.7164        19.8616        23.5522        21.8481        15.4625       0.160910       0.204158
    2528.92560         2.6274        10.6773        35.1667       149.8980       140.9081        95.8991         2.1996        18.4575        20.9590        20.2386        23.6191        21.8269        15.4016       0.160248       0.203498
    2529.07800         2.6346        51.2847        10.5221       149.3234        10.0546        95.8252         2.2515        18.5509        21.4002        20.6727        23.9182        21.9284        15.2021       0.159636       0.202888
    2529.23040         2.6383       125.0166        14.5163       150.7699        12.8377        95.8252         2.2492        19.1733        21.6603        21.1434        24.5147        22.0873        15.2171       0.160962       0.204262
    2529.38280         2.6395        74.7867        16.2826       149.9025        20.6087        95.8252         2.2493        19.9611        22.4598        21.8075        25.2351        22.0209        15.1229       0.163725       0.206970
    2529.53520         2.6286         8.5966        16.0407       152.3980        20.0329        95.8252         2.2502        20.6799        23.3857        22.2054        25.6504        22.1213        14.4887       0.165936       0.209079
    2529.68760         2.6284         8.7722        16.2537       151.8558        15.9520        95.8396         2.2504        21.0325        23.5469        22.3426        26.0943        22.4484        14.8770       0.164814       0.207973
