~Version Information Block
VERS .                  2.0:  CWLS LOG ASCII STANDARD - VERSION 2.0
WRAP .                   NO:  One line per depth step
~Well Information Block
#MNEM.UNIT        Data Type   Information
#---------- ----------------  -----------
STRT .M          1768.14480:  START DEPTH
STOP .M          2733.75120:  STOP DEPTH
STEP .M             0.15240:  STEP
NULL .              -999.25:  NULL VALUE
COMP .                     :  COMPANY
WELL .              BNG-056:  WELL
FLD  .                     :  FIELD
LOC  .                     :  LOCATION
CTRY .                     :  COUNTRY
STAT .                     :  STATE
CNTY .                     :  COUNTY
SRVC .                     :  SERVICE COMPANY
DATE .                     :  DATE
API  .                     :  API NUMBER
UWI  .                     :  UNIQUE WELL ID
~Curve Information Block
#MNEM.UNIT         API CODE   Curve Description
#---------- ----------------  -----------------
DEPTH.M                    :  
ALCDLC.G/CC                 :  ALD LCRB Comp Density
ALDD .PTPM                 :  ALD Data Density
DGDD .PTPM                 :  DGR Data Density
DGRCC.GAPI                 :  DGR Comb Gamma Ray BCorr
EWDD .PTPM                 :  EWR Data Density
EWTEMP.DEGC                 :  EWR Temperature
EWXT .HR                   :  EWR Formation Exp Time
R09PC.OHMM                 :  9in Phase Resistivity BC
R15PC.OHMM                 :  15in Phase Resistivity BC
R27PC.OHMM                 :  27in Phase Resistivity BC
R39PC.OHMM                 :  39in Phase Resistivity BC
ROPA .M/HR                 :  Avg Rate of Penetration
TNDD .PTPM                 :  CTN Data Density
TNPL .V/V                  :  CTN Porosity Limestone
TNPS .V/V                  :  CTN Porosity Sandstone
~Parameter Information Block
#MNEM.UNIT            Value   Description
#---------- ----------------  -----------
PROJECT.     ZZZ_STUDY@PETROPISIK:  
SET  .      LWD_8_5_RM_TRIM:  
~Other Information Block
# 
~A       DEPTH         ALCDLC           ALDD           DGDD          DGRCC           EWDD         EWTEMP           EWXT          R09PC          R15PC          R27PC          R39PC           ROPA           TNDD           TNPL           TNPS 
    1768.14480         2.6104        14.8550        26.9989        55.4584        36.6844        71.4111         0.7357         7.7242         7.8087         7.2076         6.7639        43.0028        15.9862       0.080901       0.121627
    1768.29720         2.6195        14.2343        43.8609        55.4522        16.3014        71.4111         0.7397         7.6868         7.8843         7.7653         7.3595        28.6373        15.8564       0.076999       0.117475
    1768.44960         2.6120        14.8999       423.4206        54.8605        15.3781        71.3942         0.7424         7.9995         8.2804         8.2540         8.1021        26.5728        16.0889       0.077156       0.117589
    1768.60200         2.6181        16.4854      1266.9465        54.5765        17.3994        71.1217         0.7469         8.4940         8.6898         8.6412         8.6448        27.5696        15.7476       0.074964       0.115260
    1768.75440         2.6426        15.3035       762.8453        52.7516       207.6253        70.8606         0.7881         8.5202         8.6299         8.5029         8.5450        35.7511        16.0435       0.068915       0.108698
    1768.90680         2.6497        14.4060       360.3714        49.3568       627.5195        70.8008         0.8218         8.3554         8.5331         8.3653         8.4305        57.6523        16.0279       0.066929       0.106458
    1769.05920         2.6532        15.1246       104.8439        48.6556       834.3030        70.8008         0.8635         8.3613         8.6611         8.4394         8.5109        74.2780        15.8418       0.065662       0.105090
    1769.21160         2.6365        17.6013        16.8905        45.6939       333.7388        70.8008         0.9379         8.6024         8.9222         8.4616         8.5789        78.2490        16.1961       0.069218       0.108990
    1769.36400         2.6219        14.9200        17.4933        51.3574       571.3214        70.8008         1.0458         7.9726         8.3342         7.9862         8.1527        78.8381        15.8076       0.076604       0.117036
    1769.51640         2.6243        13.7888        17.1015        58.2231       753.3256        70.8008         1.1934         7.0716         7.5893         7.4385         7.6835        78.6611        15.9775       0.081837       0.122670
    1769.66880         2.6233        15.1822        17.1075        75.5474       296.2589        70.7394         1.3777         6.5468         7.0421         7.1756         7.3955        80.5306        16.0802       0.088502       0.129719
    1769.82120         2.6181        14.4839        16.2961        75.0478       209.6619        70.4205         1.4558         6.6668         7.1241         7.3407         7.5007        83.8918        15.7676       0.094121       0.135582
    1769.97360         2.6082        14.5332        10.8980        59.5998       226.5594        70.2395         1.5284         6.9310         6.9480         6.9114         7.0002        85.5465        16.1685       0.111250       0.153080
    1770.12600         2.5939        16.9331        15.7118        58.7145       164.8138        70.1945         1.5858         5.8720         5.7799         5.4641         5.7075        85.2420        15.0705       0.124864       0.166848
    1770.27840         2.5810        19.6517        16.0958        83.9724        83.8286        70.1904         1.6129         5.0597         5.0808         4.7774         5.1755        84.2440        14.7715       0.131679       0.173679
    1770.43080         2.5731        19.0368        16.2237       119.3179        30.5604        70.1904         1.6284         4.1127         4.3840         4.4273         4.8524        84.8796        15.0043       0.132674       0.174674
    1770.58320         2.6141        28.1032        15.9186       122.4047        54.9226        70.1904         1.6396         4.4360         4.9583         5.2882         5.7130        86.9058        14.6770       0.105527       0.147172
    1770.73560         2.6492        25.2754        15.7064       107.6467        37.3763        70.1904         1.6535         4.9241         5.1512         5.4794         6.0597        87.0044        15.1351       0.086009       0.127066
    1770.88800         2.6632        25.5205        16.2128        92.6333        20.5125        70.1904         1.6641         5.9825         6.2238         6.2439         6.7536        91.1156        14.9290       0.078504       0.119044
    1771.04040         2.6530        15.9847        15.6566        69.1969        42.6132        70.1904         1.6722         7.4222         7.7247         7.3421         7.4970       111.7176        14.6249       0.062930       0.102026
    1771.19280         2.6397        13.5476        16.4574        51.7878        70.0939        70.1961         1.6831         8.6027         8.6590         7.9525         7.4804       135.1209        15.2109       0.065708       0.105184
    1771.34520         2.6155        13.1437        40.7683        78.6248        36.5432        70.4024         1.7043         9.4560         9.4829         7.8685         7.0548       140.5834        14.6908       0.078968       0.119533
    1771.49760         2.5833        13.0830       126.8167       107.2856        43.6628        70.7598         1.7466         6.3234         6.2919         5.5865         5.4405       141.5202        14.9725       0.104098       0.145781
    1771.65000         2.5875        13.5074        32.6465       119.5161        32.5174        70.8008         1.9690         5.1959         5.3237         5.0187         5.2082       140.5549        14.7892       0.125800       0.167800
    1771.80240         2.6100        13.0921        15.8155       147.7909        26.1766        70.8008         2.3653         4.7112         5.4191         6.0772         6.5808       140.6299        14.2547       0.124122       0.166120
    1771.95480         2.6447        13.2411        17.1369       125.9603        29.1364        70.8008         2.3749         5.8096         6.3483         7.3297         7.7698       137.0822        15.2667       0.118234       0.160099
    1772.10720         2.6436        13.3357        16.7074        84.4235        31.1144        70.8008         2.3844         6.8931         6.3855         6.6154         7.1402         9.8424        14.3142       0.085486       0.126262
    1772.25960         2.5976        13.0862        16.5477        68.9226       244.1746        70.8008         2.4703         6.0808         6.1171         5.8226         6.1166         7.4029        14.0317       0.076644       0.117021
    1772.41200         2.6186        13.6011        16.3006        95.0270      1256.2552        70.8031         2.4735         5.8967         6.5081         6.0191         6.1287         4.5815        15.4272       0.097124       0.138648
    1772.56440         2.6303        13.4495        15.5324        94.2588       870.3614        70.8609         2.6146         5.8442         6.4522         5.9917         6.0552        15.7680        16.5106       0.106427       0.148227
    1772.71680         2.5786        13.7956        16.2069        75.5845       412.7666        71.1839         2.8884         5.7408         6.1039         5.7090         5.6329        18.1755        14.3995       0.106682       0.148493
    1772.86920         2.5251        19.0757        15.8452        88.2141        95.7122        71.4111         2.9536         4.5455         4.8184         4.6239         4.6316        18.2674        14.5286       0.124070       0.165970
    1773.02160         2.5190        21.7521        15.9257       103.0212        18.1876        71.4308         2.9919         3.1411         3.5102         3.7569         3.8426        18.1543        15.9839       0.140655       0.182570
    1773.17400         2.5603        14.6750        16.2010        98.3280        17.2754        71.6484         2.9908         3.2268         3.3942         3.7114         3.6284        18.2028        17.8990       0.136400       0.178400
