~Version Information Block
VERS .                  2.0:  CWLS LOG ASCII STANDARD - VERSION 2.0
WRAP .                   NO:  One line per depth step
~Well Information Block
#MNEM.UNIT        Data Type   Information
#---------- ----------------  -----------
STRT .M          1768.14480:  START DEPTH
STOP .M          2733.75120:  STOP DEPTH
STEP .M             0.15240:  STEP
NULL .              -999.25:  NULL VALUE
COMP .                     :  COMPANY
WELL .              BNG-056:  WELL
FLD  .                     :  FIELD
LOC  .                     :  LOCATION
CTRY .                     :  COUNTRY
STAT .                     :  STATE
CNTY .                     :  COUNTY
SRVC .                     :  SERVICE COMPANY
DATE .                     :  DATE
API  .                     :  API NUMBER
UWI  .                     :  UNIQUE WELL ID
~Curve Information Block
#MNEM.UNIT         API CODE   Curve Description
#---------- ----------------  -----------------
DEPTH.M                    :  
ALCDLC.G/CC                 :  ALD LCRB Comp Density
ALDD .PTPM                 :  ALD Data Density
DGDD .PTPM                 :  DGR Data Density
DGRCC.GAPI                 :  DGR Comb Gamma Ray BCorr
EWDD .PTPM                 :  EWR Data Density
EWTEMP.DEGC                 :  EWR Temperature
EWXT .HR                   :  EWR Formation Exp Time
R09PC.OHMM                 :  9in Phase Resistivity BC
R15PC.OHMM                 :  15in Phase Resistivity BC
R27PC.OHMM                 :  27in Phase Resistivity BC
R39PC.OHMM                 :  39in Phase Resistivity BC
ROPA .M/HR                 :  Avg Rate of Penetration
TNDD .PTPM                 :  CTN Data Density
TNPL .V/V                  :  CTN Porosity Limestone
TNPS .V/V                  :  CTN Porosity Sandstone
~Parameter Information Block
#MNEM.UNIT            Value   Description
#---------- ----------------  -----------
PROJECT.     ZZZ_STUDY@PETROPISIK:  
SET  .      LWD_8_5_RM_TRIM:  
~Other Information Block
# 
~A       DEPTH         ALCDLC           ALDD           DGDD          DGRCC           EWDD         EWTEMP           EWXT          R09PC          R15PC          R27PC          R39PC           ROPA           TNDD           TNPL           TNPS 
# ...
    2270.76000         2.5662         9.4677        12.0825       119.0762        13.2767        93.3838         1.2878         6.5888         6.8090         6.5913         7.4786        35.6813        14.7399       0.280840       0.322900
    2270.91240         2.5853         9.9063        12.7444       128.5548        12.4641        93.3838         1.2888         4.9777         5.9138         6.6472         7.8400        34.5472        14.6521       0.241020       0.282678
    2271.06480         2.5397        11.5986        17.8017       152.8311        11.4503        93.3838         1.2894         7.0226         8.3097         9.6951        10.9172        34.9068        13.2901       0.253004       0.294604
    2271.21720         2.5015        14.3040        17.7785       166.6996        12.2902        93.3838         1.2901         8.6300         9.8591        10.8974        12.0705        35.9114        12.6483       0.291864       0.333778
    2271.36960         2.4534        16.0132        10.8812       169.6931        15.6725        93.3838         1.2918        10.2108        10.8547        11.6707        12.9019        35.6406        12.3660       0.315182       0.357482
    2271.52200         2.2704        15.3252         9.6336       160.8030        24.8959        93.3838         1.2987        11.6213        11.5550        11.6381        12.7784        35.1912        12.4853       0.325356       0.367992
    2271.67440         2.1160        14.4382         9.6624       150.7397        85.2167        93.3838         1.3113         9.9281        10.2514         9.5682        10.7305        35.8355        12.5130       0.327575       0.370278
    2271.82680         2.2160        14.8851        11.0525       142.7368        99.4348        93.3838         1.3220         8.6811         9.3097         8.7133         9.7698        35.6594        11.8950       0.289018       0.331060
    2271.97920         2.3609        18.2681        13.8737       128.6037        34.2561        93.3838         1.3341         7.0398         8.3051         8.3823         9.4972        31.6783        12.0480       0.225554       0.267571
    2272.13160         2.4125        17.7768        14.8241       107.1633        10.1490        93.3838         1.3335         6.0253         8.4740         9.5423        10.6693        25.3604        12.1625       0.163082       0.205926
    2272.28400         2.4251        15.9833        12.7949        81.5979        10.6042        93.3838         1.2236         6.3852         9.9267        12.2389        13.1946        16.2220        11.8380       0.133132       0.176488
    2272.43640         2.4471        17.1063        12.6186        71.5393        10.9573        93.3838         0.9257         8.7106        13.7910        17.9172        17.7765         9.5132        12.1172       0.133386       0.176786
    2272.58880         2.4980        17.4461        13.6974        81.1424        11.6178        93.3838         0.6273        17.5786        22.4174        25.6330        23.5153         4.6923        12.5216       0.144802       0.188084
    2272.74120         2.5614        16.9730        12.4249       100.2756        12.3713        93.3838         0.5221        20.4252        22.1922        22.8504        21.8639        15.8971        13.2473       0.161622       0.204579
    2272.89360         2.6072        15.2711        11.2723       126.0695        11.9483        93.3838         0.5158        16.6493        17.0242        16.7759        18.0194        28.6143        14.2024       0.172282       0.215019
    2273.04600         2.6429        14.8128        12.6242       140.3347        10.9129        93.3838         0.5152        15.4036        16.0125        15.5563        17.2858        29.9527        14.7215       0.172516       0.215280
    2273.19840         2.6496        16.8530        27.2035       139.9476        10.3592        93.3838         0.5135        15.8053        16.6331        16.2125        17.6168        27.4425        14.1377       0.165824       0.208755
    2273.35080         2.6302        15.3899        23.9953       138.8704        11.1194        93.3838         0.5101        16.0562        16.7868        16.5519        17.9783        23.1442        13.4484       0.154970       0.198105
    2273.50320         2.6098        14.1730        12.6033       139.8651        14.5516        93.3838         0.5082        15.9300        16.7874        16.3538        17.9279        19.6805        13.3415       0.146559       0.189759
    2273.65560         2.5963        14.0067        10.1465       142.7573        14.4878        93.3838         0.5083        15.7320        16.7002        15.9969        17.8336        21.4769        12.5793       0.156609       0.199668
    2273.80800         2.5425        13.7531        11.4652       144.4754        12.9635        93.3838         0.5084        15.4191        16.2983        15.9606        17.6786        27.0766        11.0983       0.179556       0.222196
    2273.96040         2.4976        14.1457        13.2113       139.7354        12.4881        93.3838         0.5086        14.9389        15.9340        15.8298        17.4839        30.6530         9.8446       0.198570       0.240776
    2274.11280         2.5609        14.1283        14.7092       138.2695        13.0341        93.3838         0.5088        14.7958        15.9896        15.8542        17.6397        29.3450         9.4480       0.190567       0.232893
    2274.26520         2.6059        15.4196        14.1167       145.3393        12.9108        93.3838         0.5083        13.7727        14.9475        15.0080        16.9992        26.2550         9.4569       0.172676       0.215460
    2274.41760         2.5842        15.4410        13.9449       145.5700        12.3985        93.3838         0.5072        12.4465        13.8647        14.2164        15.9837        25.3625         9.5944       0.161209       0.204266
    2274.57000         2.4692        14.1362        15.0464       132.2486        12.0052        93.3838         0.5059        11.1548        13.0642        13.7882        15.5836        24.5977         9.5071       0.157760       0.200860
    2274.72240         2.3554        13.5700        14.6972        92.9659        12.3635        93.3838         0.5048        10.5225        13.4636        13.8089        15.4556        23.8570         9.4431       0.140917       0.184180
    2274.87480         2.3114        14.4739        14.0465        58.9691        17.6630        93.3838         0.5061         9.9800        13.2219        13.5566        15.0945        27.7400        10.3478       0.132874       0.176257
    2275.02720         2.3244        14.6214        14.9529        54.0940        17.1000        93.3838         0.5084         9.9602        13.1306        13.8920        15.1699        33.5876        12.4266       0.139547       0.182862
    2275.17960         2.3942        15.4384        14.6388        56.1360        10.8044        93.3838         0.5088         9.3995        11.7397        12.7056        14.0494        35.7269        15.5025       0.143751       0.187051
    2275.33200         2.4569        17.3942        14.3911        80.3097         9.3959        93.3838         0.5084         8.4294        10.2796        11.5629        13.0600        34.8410        16.0691       0.146400       0.189612
    2275.48440         2.4267        17.0035        13.0761        97.4445         9.6039        93.3838         0.5072         8.5904        10.4949        11.8095        13.5477        30.9707        14.7239       0.146790       0.189990
    2275.63680         2.4335        17.0324        12.4117        77.6988        10.6116        93.3838         0.5059         9.4272        11.7280        13.0043        14.6726        28.0116        14.3316       0.132664       0.176046
    2275.78920         2.4519        23.7684        12.0558        61.2411        13.6434        93.3838         0.5061        11.1244        13.3173        14.3170        15.4848        27.9273        15.2432       0.120350       0.163750
