~Version Information Block
VERS .                  2.0:  CWLS LOG ASCII STANDARD - VERSION 2.0
WRAP .                   NO:  One line per depth step
~Well Information Block
#MNEM.UNIT        Data Type   Information
#---------- ----------------  -----------
STRT .M          1768.14480:  START DEPTH
STOP .M          2733.75120:  STOP DEPTH
STEP .M             0.15240:  STEP
NULL .              -999.25:  NULL VALUE
COMP .                     :  COMPANY
WELL .              BNG-056:  WELL
FLD  .                     :  FIELD
LOC  .                     :  LOCATION
CTRY .                     :  COUNTRY
STAT .                     :  STATE
CNTY .                     :  COUNTY
SRVC .                     :  SERVICE COMPANY
DATE .                     :  DATE
API  .                     :  API NUMBER
UWI  .                     :  UNIQUE WELL ID
~Curve Information Block
#MNEM.UNIT         API CODE   Curve Description
#---------- ----------------  -----------------
DEPTH.M                    :  
ALCDLC.G/CC                 :  ALD LCRB Comp Density
ALDD .PTPM                 :  ALD Data Density
DGDD .PTPM                 :  DGR Data Density
DGRCC.GAPI                 :  DGR Comb Gamma Ray BCorr
EWDD .PTPM                 :  EWR Data Density
EWTEMP.DEGC                 :  EWR Temperature
EWXT .HR                   :  EWR Formation Exp Time
R09PC.OHMM                 :  9in Phase Resistivity BC
R15PC.OHMM                 :  15in Phase Resistivity BC
R27PC.OHMM                 :  27in Phase Resistivity BC
R39PC.OHMM                 :  39in Phase Resistivity BC
ROPA .M/HR                 :  Avg Rate of Penetration
TNDD .PTPM                 :  CTN Data Density
TNPL .V/V                  :  CTN Porosity Limestone
TNPS .V/V                  :  CTN Porosity Sandstone
~Parameter Information Block
#MNEM.UNIT            Value   Description
#---------- ----------------  -----------
PROJECT.     ZZZ_STUDY@PETROPISIK:  
SET  .      LWD_8_5_RM_TRIM:  
~Other Information Block
# 
~A       DEPTH         ALCDLC           ALDD           DGDD          DGRCC           EWDD         EWTEMP           EWXT          R09PC          R15PC          R27PC          R39PC           ROPA           TNDD           TNPL           TNPS 
# ...
    2395.11840         2.4656        25.1915        17.4275        53.7406        13.6158        97.0459         0.6695        13.8215        16.9445        17.2203        19.3235        16.0150        14.6651       0.092901       0.135638
    2395.27080         2.4523        24.0698        16.7654        59.3455        13.5685        97.0459         0.6671        11.7201        14.4093        15.7396        18.2777        18.6285        18.5971       0.098394       0.141388
    2395.42320         2.4373        21.1856        17.4097        61.8425        14.4033        97.0459         0.6653        10.6146        14.2421        16.2630        19.2127        19.9166        19.9603       0.098985       0.142036
    2395.57560         2.4399        21.6411        19.3240        57.0800        16.8742        97.0459         0.6643        11.1526        16.4286        19.0491        22.3426        19.6743        18.3720       0.097046       0.139996
    2395.72800         2.4502        26.4024        19.8110        57.4724        17.9214        97.0459         0.6641        12.2796        17.5788        20.7444        24.3299        19.5365        19.0470       0.097328       0.140280
    2395.88040         2.4473        24.6311        19.8489        66.9202        18.3962        97.0459         0.6642        12.7863        17.4563        20.8323        24.6456        20.0308        19.3328       0.102878       0.145985
    2396.03280         2.4209        17.4348        21.9004        75.8508        18.3273        97.0459         0.6645        17.1637        24.1997        26.4796        29.9521        20.4993        19.8888       0.115380       0.158746
    2396.18520         2.3949        20.4115        24.7866        79.4951        21.1087        97.0459         0.6655        23.2868        33.4957        32.5803        35.2101        20.4087        19.3418       0.128689       0.172132
    2396.33760         2.3995        25.3912        28.0535        85.8420        19.6778        97.0459         0.6670        34.7514        51.6250        40.9432        40.8159        22.2207        17.5673       0.144504       0.187846
    2396.49000         2.4578        24.0471        29.8486        97.1748        17.8505        97.0731         0.6680        50.5222        56.6683        46.8466        43.9892        25.1480        16.6598       0.155080       0.198320
    2396.64240         2.5293        25.5658        29.2865       107.0348        17.5689        97.1862         0.6695        44.6570        45.6440        41.8423        40.2522        27.1954        16.1353       0.160573       0.203650
    2396.79480         2.5686        24.0015        25.2778       128.8676        16.7450        97.4271         0.6712        35.7549        39.8417        37.6991        37.6720        28.9518        15.6172       0.159703       0.202766
    2396.94720         2.5798        20.2243        27.6897       145.4096        18.7433        97.6129         0.6706        32.5716        37.2785        36.0083        36.8338        22.1756        15.2366       0.154595       0.197825
    2397.09960         2.5734        20.9468        29.0039       149.1389        17.3274        97.6563         0.6641        30.8848        35.8556        34.4763        36.6914        15.1479        14.0666       0.155589       0.198822
    2397.25200         2.5870        24.5267        25.4312       154.6400        16.3967        97.6563         0.6576        29.6516        34.4447        32.7506        35.5769        13.9602        13.5874       0.159992       0.203124
    2397.40440         2.6097        27.3994        24.9096       157.7805        16.6765        97.6563         0.6570        28.1176        32.6424        31.2079        34.1017        26.3186        14.8210       0.159173       0.202342
    2397.55680         2.6113        29.4876        25.6235       159.1128        18.3627        97.6563         0.6593        25.7009        29.6271        29.0391        32.5996        31.1868        16.1760       0.163896       0.207025
    2397.70920         2.5878        30.0919        24.1217       158.4924        16.8578        97.6563         0.6610        22.7149        25.8204        25.7211        29.7030        29.3607        19.5727       0.170786       0.213741
    2397.86160         2.5760        30.7473        21.3821       153.8888        17.1485        97.6563         0.6625        19.0459        21.4427        21.7607        26.3502        27.7698        20.3248       0.181577       0.224328
    2398.01400         2.6013        26.9894        17.3366       158.0632        17.3416        97.6563         0.6642        17.0400        19.1982        20.3091        25.4091        28.0767        21.4617       0.192908       0.235380
    2398.16640         2.6158        19.8418        14.6344       169.9097        24.6556        97.6563         0.6675        15.6663        18.1915        20.1947        25.4160        28.3992        20.2705       0.190766       0.233244
    2398.31880         2.6234        17.2453        14.4410       167.1063        26.2159        97.6563         0.6721        16.2167        19.1712        21.7292        27.1751        28.3070        22.8671       0.176174       0.218990
    2398.47120         2.5958        28.7868        14.6598       155.0074        19.8495        97.6563         0.6750        20.7312        23.1734        25.0926        30.8741        27.7868        23.8720       0.159368       0.202510
    2398.62360         2.5731        38.9378        14.5785       133.3934        16.0154        97.6563         0.6747        24.0956        24.9819        25.3206        30.4748        25.0444        24.5720       0.142439       0.185804
    2398.77600         2.6045        34.8104        14.7389       122.1636        17.4130        97.6563         0.6746        24.4026        25.3001        23.6191        28.0990        21.3465        23.4210       0.122784       0.166268
    2398.92840         2.6209        28.1273        22.0409       109.8934        17.8539        97.6563         0.6749        20.4055        22.3149        20.7393        24.6024        19.9982        24.8545       0.107616       0.150945
    2399.08080         2.5664        31.6166        85.3630        93.4807        16.8571        97.6563         0.6752        19.1133        22.0234        20.8969        24.1405        21.6553        25.1803       0.108478       0.151865
    2399.23320         2.4957        28.1812        98.7357        89.5166        17.2162        97.6563         0.6756        16.9210        20.0288        19.8478        22.6424        23.0751        23.4335       0.115294       0.158782
    2399.38560         2.4838        17.6451        23.8390        88.1665        19.5931        97.6563         0.6771        13.9927        18.2008        19.7997        23.0139        22.9060        19.5919       0.114292       0.157702
    2399.53800         2.4748        17.3276        15.6846        90.1214        20.1457        97.6563         0.6783        25.8514        35.2372        35.6154        36.6349        21.1465        23.4800       0.104348       0.147564
    2399.69040         2.4974        18.0165        18.8328        98.7955        19.6105        97.6563         0.6772        32.6519        39.4165        38.3479        38.9014        18.8360        26.6633       0.082627       0.124517
    2399.84280         2.5743        16.5678        21.0015        96.5119        21.4679        97.6563         0.6681        29.9004        33.3305        32.8488        34.3956        12.8277        20.8141       0.070157       0.111100
    2399.99520         2.6248        16.3227        16.7491        77.3996        24.2016        97.6563         0.6588        31.5479        31.8794        29.7417        31.4514         8.0998        14.2328       0.058468       0.098206
    2400.14760         2.6381        17.2686        20.2383        73.1767        29.1081        97.6563         0.6514        27.0719        28.2967        25.4947        27.0362         7.1684        24.6736       0.062036       0.102326
