~Version Information Block
VERS .                  2.0:  CWLS LOG ASCII STANDARD - VERSION 2.0
WRAP .                   NO:  One line per depth step
~Well Information Block
#MNEM.UNIT        Data Type   Information
#---------- ----------------  -----------
STRT .M          1768.14480:  START DEPTH
STOP .M          2733.75120:  STOP DEPTH
STEP .M             0.15240:  STEP
NULL .              -999.25:  NULL VALUE
COMP .                     :  COMPANY
WELL .              BNG-056:  WELL
FLD  .                     :  FIELD
LOC  .                     :  LOCATION
CTRY .                     :  COUNTRY
STAT .                     :  STATE
CNTY .                     :  COUNTY
SRVC .                     :  SERVICE COMPANY
DATE .                     :  DATE
API  .                     :  API NUMBER
UWI  .                     :  UNIQUE WELL ID
~Curve Information Block
#MNEM.UNIT         API CODE   Curve Description
#---------- ----------------  -----------------
DEPTH.M                    :  
ALCDLC.G/CC                 :  ALD LCRB Comp Density
ALDD .PTPM                 :  ALD Data Density
DGDD .PTPM                 :  DGR Data Density
DGRCC.GAPI                 :  DGR Comb Gamma Ray BCorr
EWDD .PTPM                 :  EWR Data Density
EWTEMP.DEGC                 :  EWR Temperature
EWXT .HR                   :  EWR Formation Exp Time
R09PC.OHMM                 :  9in Phase Resistivity BC
R15PC.OHMM                 :  15in Phase Resistivity BC
R27PC.OHMM                 :  27in Phase Resistivity BC
R39PC.OHMM                 :  39in Phase Resistivity BC
ROPA .M/HR                 :  Avg Rate of Penetration
TNDD .PTPM                 :  CTN Data Density
TNPL .V/V                  :  CTN Porosity Limestone
TNPS .V/V                  :  CTN Porosity Sandstone
~Parameter Information Block
#MNEM.UNIT            Value   Description
#---------- ----------------  -----------
PROJECT.     ZZZ_STUDY@PETROPISIK:  
SET  .      LWD_8_5_RM_TRIM:  
~Other Information Block
# 
~A       DEPTH         ALCDLC           ALDD           DGDD          DGRCC           EWDD         EWTEMP           EWXT          R09PC          R15PC          R27PC          R39PC           ROPA           TNDD           TNPL           TNPS 
# ...
    1830.32400         2.6482        11.2903        11.2444       101.1349        12.5617        77.5146         1.5759         4.8765         4.7189         4.9242         4.5595        27.3585        12.9686       0.151612       0.193560
    1830.47640         2.6707        11.2708        10.8596        79.3348        13.1991        77.5146         1.5727         7.7526         7.1101         6.4763         5.5409        21.7483        13.5636       0.113426       0.155502
    1830.62880         2.6697        11.6593        10.9765        64.2261        14.5840        77.5146         1.5690        11.8321        10.1507         7.9202         6.3030        16.7728        12.6178       0.088298       0.129759
    1830.78120         2.6402        12.0608        10.8034        58.6640        14.1873        77.5146         1.5650        12.3725        10.2232         7.8149         6.0700        14.5444        11.7908       0.085270       0.126611
    1830.93360         2.5931        11.1161        11.0355        51.1657        14.9683        77.5146         1.5616         7.6552         7.3973         6.3043         5.3412        14.9912        12.7477       0.089970       0.131537
    1831.08600         2.5091        11.0413        11.0883        52.4266        18.3223        77.5146         1.5620         5.6681         6.1009         5.8483         5.3334        19.4765        12.5815       0.100948       0.142844
    1831.23840         2.4415        11.3683        10.9300        63.3777        19.8949        77.5146         1.5647         5.0031         5.6170         5.7968         5.6070        26.5736        11.6194       0.120831       0.163057
    1831.39080         2.4358        11.4135        11.0819        65.5102        15.5588        77.5146         1.5665         4.3686         4.9009         5.4052         5.6218        30.0444        11.4245       0.134490       0.176790
    1831.54320         2.4470        10.9438        10.8616        61.5156        12.2419        77.5146         1.5668         4.2829         4.5164         5.1428         5.6196        30.3227        11.3731       0.134533       0.176833
    1831.69560         2.4639        10.8836        10.8604        62.5499        11.1280        77.5146         1.5666         4.4907         4.5078         4.9523         5.6218        30.4498        11.1287       0.129515       0.171815
    1831.84800         2.4944        11.0780        10.8821        71.8621        10.8881        77.5146         1.5662         4.5435         4.5466         4.6514         5.4620        30.3210        11.0555       0.124816       0.167116
    1832.00040         2.5330        11.4377        10.8492        81.6018        13.9688        77.5146         1.5664         4.5983         4.5990         4.5442         5.2957        30.2101        11.0402       0.123496       0.165796
    1832.15280         2.5462        11.5384        11.3716        88.5379        21.5975        77.5146         1.5686         4.6397         4.6389         4.5575         5.1774        30.0052        11.6285       0.121022       0.163322
    1832.30520         2.5475        11.5639        11.9748        90.9731        23.8075        77.5146         1.5729         4.7377         4.7333         4.6697         5.1620        29.3251        11.5209       0.116681       0.158981
    1832.45760         2.5388        11.7891        11.5845        90.9149        17.6780        77.5146         1.5756         4.9742         4.9847         4.9158         5.2767        28.7821        11.0302       0.114054       0.156315
    1832.61000         2.5370        11.7130        11.2838        92.8941        12.8479        77.5146         1.5761         5.3148         5.2743         5.1678         5.4092        28.5761        11.2936       0.112700       0.154900
    1832.76240         2.5544        12.3588        11.2469        92.8602        11.5163        77.5146         1.5756         5.3789         5.3073         5.1614         5.3642        28.0786        11.2465       0.110466       0.152666
    1832.91480         2.5736        12.9557        11.1267        89.4272        10.8230        77.5146         1.5745         5.3268         5.3158         5.1789         5.4007        27.1382        11.1204       0.110268       0.152468
    1833.06720         2.5831        11.7441        10.9589        88.1410        11.2148        77.5205         1.5733         5.3274         5.4096         5.3428         5.5386        26.3209        11.1255       0.107953       0.150108
    1833.21960         2.5735        11.0729        10.9757        89.4489        13.3113        77.6494         1.5727         5.3893         5.5015         5.4789         5.6341        26.1238        11.3140       0.108074       0.150220
    1833.37200         2.5460        11.2766        11.3331        87.2256        15.1811        77.9403         1.5732         5.4447         5.5039         5.5319         5.6836        26.3877        11.6107       0.103068       0.145076
    1833.52440         2.5188        11.1240        11.5045        72.9384        14.2194        78.1140         1.5737         5.4833         5.5133         5.5452         5.7236        26.6169        11.2426       0.095494       0.137344
    1833.67680         2.5170        12.5860        11.7418        61.2004        14.3732        78.1250         1.5737         5.5350         5.6227         5.5600         5.7670        25.4831        11.0461       0.093589       0.135335
    1833.82920         2.5429        18.2994        11.9857        63.1333        15.9777        78.1250         1.5738         5.6111         5.6913         5.5809         5.8108        23.4636        11.0546       0.097066       0.138878
    1833.98160         2.5640        19.2878        17.1165        76.0239        14.2844        78.1250         1.5735         5.5397         5.6319         5.5446         5.7898        23.7727        10.7152       0.104467       0.146576
    1834.13400         2.5530        17.3003        26.6455        89.8053        11.7298        78.1250         1.5727         5.4895         5.5162         5.5010         5.7339        25.8308        10.9451       0.110736       0.152992
    1834.28640         2.5509        14.7861        27.6053        95.5152        10.9436        78.1250         1.5717         5.4610         5.4579         5.4406         5.6947        27.1019        11.1628       0.109865       0.152107
    1834.43880         2.5648        11.6434        19.8231        97.8603        10.7684        78.1250         1.5708         5.2883         5.3946         5.3092         5.5699        28.1234        11.2216       0.114237       0.156496
    1834.59120         2.5634        11.2141        13.7800        90.7770        10.9865        78.1250         1.5700         5.0763         5.2725         5.1326         5.3673        28.4451        12.0458       0.114636       0.156936
    1834.74360         2.5515        11.5163        12.9661        90.1807        10.9046        78.1250         1.5689         4.8054         5.0168         4.8779         5.1121        27.6324        11.7674       0.117116       0.159416
    1834.89600         2.5527        11.3469        13.5871       101.2827        10.9698        78.1250         1.5676         4.5456         4.6831         4.6427         4.9082        26.9243        11.2121       0.126964       0.169264
    1835.04840         2.5522        11.2366        12.0903       106.5346        11.0537        78.1250         1.5665         4.3642         4.4399         4.4587         4.7380        26.8157        11.3031       0.137422       0.179657
    1835.20080         2.5502        11.1382        12.2042       104.6355        10.9868        78.1250         1.5655         4.2087         4.3207         4.3321         4.6215        26.6301        11.5190       0.144091       0.186291
    1835.35320         2.5477        11.0372        12.8572       106.1321        11.1104        78.1250         1.5647         4.1549         4.3431         4.3318         4.5510        26.4089        11.4391       0.154269       0.196331
