~Version Information Block
VERS .                  2.0:  CWLS LOG ASCII STANDARD - VERSION 2.0
WRAP .                   NO:  One line per depth step
~Well Information Block
#MNEM.UNIT        Data Type   Information
#---------- ----------------  -----------
STRT .M          1768.14480:  START DEPTH
STOP .M          2733.75120:  STOP DEPTH
STEP .M             0.15240:  STEP
NULL .              -999.25:  NULL VALUE
COMP .                     :  COMPANY
WELL .              BNG-056:  WELL
FLD  .                     :  FIELD
LOC  .                     :  LOCATION
CTRY .                     :  COUNTRY
STAT .                     :  STATE
CNTY .                     :  COUNTY
SRVC .                     :  SERVICE COMPANY
DATE .                     :  DATE
API  .                     :  API NUMBER
UWI  .                     :  UNIQUE WELL ID
~Curve Information Block
#MNEM.UNIT         API CODE   Curve Description
#---------- ----------------  -----------------
DEPTH.M                    :  
ALCDLC.G/CC                 :  ALD LCRB Comp Density
ALDD .PTPM                 :  ALD Data Density
DGDD .PTPM                 :  DGR Data Density
DGRCC.GAPI                 :  DGR Comb Gamma Ray BCorr
EWDD .PTPM                 :  EWR Data Density
EWTEMP.DEGC                 :  EWR Temperature
EWXT .HR                   :  EWR Formation Exp Time
R09PC.OHMM                 :  9in Phase Resistivity BC
R15PC.OHMM                 :  15in Phase Resistivity BC
R27PC.OHMM                 :  27in Phase Resistivity BC
R39PC.OHMM                 :  39in Phase Resistivity BC
ROPA .M/HR                 :  Avg Rate of Penetration
TNDD .PTPM                 :  CTN Data Density
TNPL .V/V                  :  CTN Porosity Limestone
TNPS .V/V                  :  CTN Porosity Sandstone
~Parameter Information Block
#MNEM.UNIT            Value   Description
#---------- ----------------  -----------
PROJECT.     ZZZ_STUDY@PETROPISIK:  
SET  .      LWD_8_5_RM_TRIM:  
~Other Information Block
# 
~A       DEPTH         ALCDLC           ALDD           DGDD          DGRCC           EWDD         EWTEMP           EWXT          R09PC          R15PC          R27PC          R39PC           ROPA           TNDD           TNPL           TNPS 
# ...
    2332.93920         2.6064        20.3816        12.3096       134.9161        11.9498        95.2148         0.6562        23.3158        23.4751        19.9912        20.8147        29.4500        15.8081       0.140927       0.184384
    2333.09160         2.5518        93.7712        18.0662       116.1945        11.3636        95.2148         0.6511        20.9245        23.8325        19.1858        20.4347        22.2467        15.0233       0.123390       0.166985
    2333.24400         2.5368       156.0109        13.0718       105.4206        11.8748        95.2148         0.6461        24.4541        25.1882        18.5266        19.6285        16.2006        16.1809       0.126052       0.169652
    2333.39640         2.5651        43.1815        13.6767       113.2616       179.1792        95.2148         0.6601        14.9420        18.0343        17.9350        19.4907        15.3269        16.4925       0.140645       0.184147
    2333.54880         2.6238        26.7789        15.1387       133.8209        93.5234        95.2148         0.6685        14.5248        17.9389        18.4661        20.1518        26.1290        15.6124       0.167090       0.210094
    2333.70120         2.6040        23.9568        17.0047       153.4512        11.1387        95.2148         0.6788        16.9669        18.9110        20.4628        22.7038        34.0233        16.0071       0.178133       0.220934
    2333.85360         2.5925        16.7314        13.1702       149.6914        12.6977        95.2148         0.6791        18.6077        20.1326        21.0342        23.4642        32.3683        16.9750       0.169646       0.212651
    2334.00600         2.5832        18.9614        13.6627       145.7429        13.8083        95.2148         0.6800        19.7621        21.5444        21.3947        24.6737        30.4130        16.1280       0.163340       0.206536
    2334.15840         2.5931        20.3202        16.7413       145.4681        14.8843        95.2148         0.6812        20.9803        23.9431        22.7992        25.3664        31.1358        15.4886       0.161917       0.205022
    2334.31080         2.5924        19.9402        15.0878       146.4848        15.7508        95.2148         0.6827        22.5162        24.8496        23.2868        25.3292        31.4718        17.5594       0.161494       0.204702
    2334.46320         2.5978        19.5537        23.6562       132.8649        13.7902        95.2148         0.6837        22.9046        25.3407        23.5964        25.1979        30.2012        23.8321       0.152682       0.195982
    2334.61560         2.6031        17.4893        27.1844       133.5818        13.8037        95.2148         0.6845        22.1630        23.8637        22.6879        23.7849        29.7359        35.3196       0.155361       0.198671
    2334.76800         2.6049        20.1577        13.9869       137.1709        14.6823        95.2148         0.6856        21.2007        23.0434        22.0623        23.1890        30.2707        31.7607       0.153516       0.196916
    2334.92040         2.5826        17.7496        13.1207       130.6036        15.5009        95.2148         0.6868        21.6422        22.8418        21.5884        22.1223        29.3697        22.8172       0.154787       0.198187
    2335.07280         2.5811        16.0293        15.2665       130.3378        14.1900        95.2148         0.6872        19.5917        21.0145        19.9874        20.1294        28.5380        18.3140       0.153317       0.196702
    2335.22520         2.6025        17.3640        15.6035       137.2973        12.7825        95.2148         0.6869        17.4419        18.1352        17.0304        17.6158        28.8879        17.6079       0.157326       0.200609
    2335.37760         2.6170        17.3816        14.9537       133.1813        13.9057        95.2148         0.6871        14.4083        14.5804        14.0073        14.5970        27.4067        18.2933       0.164869       0.208032
    2335.53000         2.6336        19.4981        15.2206       140.5679        14.1213        95.2148         0.6879        11.1371        11.3602        11.1370        12.0218        26.8643        18.4244       0.175440       0.218400
    2335.68240         2.6392        20.5415        13.3936       154.8199        12.9470        95.2148         0.6885         8.6489         9.0823         9.1422        10.1401        30.0336        16.7298       0.185997       0.228732
    2335.83480         2.6465        18.5059        13.2903       158.7789        11.6991        95.2148         0.6888         6.7520         7.2998         7.5566         8.6871        32.6981        16.7083       0.195489       0.238012
    2335.98720         2.6496        16.5246        13.7081       156.0096        11.1141        95.2148         0.6883         5.1776         5.7009         6.1852         7.4602        32.8147        15.6420       0.183763       0.226462
    2336.13960         2.6139        15.5507        14.5361       142.1589        11.4762        95.2148         0.6866         4.6240         5.5521         6.3577         7.7797        29.6195        14.8217       0.158629       0.201734
    2336.29200         2.5211        15.6243        14.8722        96.2329        12.3227        95.2148         0.6828         5.7565         7.3374         8.4756         9.8227        21.5758        14.8270       0.116924       0.160044
    2336.44440         2.4594        13.6362        16.1499        49.1616        11.2325        95.2148         0.6740         7.9147         9.3738        10.1323        10.7649        13.9478        13.8980       0.079263       0.120982
    2336.59680         2.4899        12.0312        17.3613        36.4066        11.4006        95.2148         0.6615        10.9718        10.9907        10.7529        10.6999        10.0543        12.5093       0.056982       0.096489
    2336.74920         2.5188        11.4423        17.2399        33.7268        12.9397        95.2148         0.6455        14.1338        12.9258        11.1322        10.3333         8.3114        19.4887       0.047080       0.085083
    2336.90160         2.5268        13.8694        16.5040        31.5211        15.1910        95.2148         0.6293        14.6126        13.4337        11.0792         9.6934         7.1372        50.1014       0.047258       0.085167
    2337.05400         2.5235        15.0670        16.3457        32.7358        14.1857        95.2701         0.6146        12.6148        12.5659        10.7073         9.1422         6.6329       113.5233       0.051196       0.089804
    2337.20640         2.5003        15.1585        15.5032        32.2387        13.1556        95.5303         0.5988        10.3838        11.5419        10.3200         8.8926         6.8234       109.4387       0.053028       0.091941
    2337.35880         2.4758        16.8614        15.5163        31.3549        15.4407        95.8093         0.5878         9.7282        11.6500        10.8965         9.3797         7.6107        33.8480       0.063367       0.103447
    2337.51120         2.4878        17.0396        15.4824        39.9707        15.4650        95.8252         0.5802        10.3307        12.5070        12.0283        10.3889        10.5513        25.3883       0.084170       0.126260
    2337.66360         2.5534        16.0479        15.9894        60.1348        13.8060        95.8252         0.5774        10.6461        12.2310        12.1565        11.1038        16.3080        20.9758       0.106833       0.149887
    2337.81600         2.6379        15.3738        16.1991        91.0964        14.1557        95.8252         0.5767        11.0901        11.9759        12.2820        11.7999        22.5818        17.3350       0.129848       0.173248
    2337.96840         2.6873        16.4790        15.7361       113.6820        15.4821        95.8252         0.5767        12.1661        12.6374        12.7410        12.4104        25.3181        19.5324       0.148502       0.191766
