~Version Information Block
VERS .                  2.0:  CWLS LOG ASCII STANDARD - VERSION 2.0
WRAP .                   NO:  One line per depth step
~Well Information Block
#MNEM.UNIT        Data Type   Information
#---------- ----------------  -----------
STRT .M          1768.14480:  START DEPTH
STOP .M          2733.75120:  STOP DEPTH
STEP .M             0.15240:  STEP
NULL .              -999.25:  NULL VALUE
COMP .                     :  COMPANY
WELL .              BNG-056:  WELL
FLD  .                     :  FIELD
LOC  .                     :  LOCATION
CTRY .                     :  COUNTRY
STAT .                     :  STATE
CNTY .                     :  COUNTY
SRVC .                     :  SERVICE COMPANY
DATE .                     :  DATE
API  .                     :  API NUMBER
UWI  .                     :  UNIQUE WELL ID
~Curve Information Block
#MNEM.UNIT         API CODE   Curve Description
#---------- ----------------  -----------------
DEPTH.M                    :  
ALCDLC.G/CC                 :  ALD LCRB Comp Density
ALDD .PTPM                 :  ALD Data Density
DGDD .PTPM                 :  DGR Data Density
DGRCC.GAPI                 :  DGR Comb Gamma Ray BCorr
EWDD .PTPM                 :  EWR Data Density
EWTEMP.DEGC                 :  EWR Temperature
EWXT .HR                   :  EWR Formation Exp Time
R09PC.OHMM                 :  9in Phase Resistivity BC
R15PC.OHMM                 :  15in Phase Resistivity BC
R27PC.OHMM                 :  27in Phase Resistivity BC
R39PC.OHMM                 :  39in Phase Resistivity BC
ROPA .M/HR                 :  Avg Rate of Penetration
TNDD .PTPM                 :  CTN Data Density
TNPL .V/V                  :  CTN Porosity Limestone
TNPS .V/V                  :  CTN Porosity Sandstone
~Parameter Information Block
#MNEM.UNIT            Value   Description
#---------- ----------------  -----------
PROJECT.     ZZZ_STUDY@PETROPISIK:  
SET  .      LWD_8_5_RM_TRIM:  
~Other Information Block
# 
~A       DEPTH         ALCDLC           ALDD           DGDD          DGRCC           EWDD         EWTEMP           EWXT          R09PC          R15PC          R27PC          R39PC           ROPA           TNDD           TNPL           TNPS 
# ...
    1892.50320         2.5861        13.2377        21.9781       144.5353        15.7361        82.3975         1.5472         2.6013         2.5647         2.5091         2.8016        30.0441        15.0968       0.221990       0.263053
    1892.65560         2.5803        13.2780        19.6574       146.3413        14.5862        82.3975         1.5485         2.8247         2.8692         2.9533         3.3096        30.1776        14.8427       0.221195       0.262266
    1892.80800         2.6059        13.0643        15.7325       138.8100        14.5662        82.3975         1.5494         3.6257         3.7989         4.0989         4.4189        30.1945        14.7059       0.206780       0.248096
    1892.96040         2.6771        13.1296        14.8335       126.1275        14.7623        82.3975         1.5500         5.1886         5.1517         5.5029         5.6204        29.8462        14.9145       0.178416       0.220331
    1893.11280         2.7478        13.0652        15.2561        99.6265        13.5223        82.3975         1.5497         7.4859         6.7849         6.6456         6.5758        26.5145        14.7656       0.138967       0.181368
    1893.26520         2.7430        13.0003        14.9186        79.9059        12.9549        82.3975         1.5481         9.2971         8.2805         7.3536         7.0442        22.2693        14.7094       0.103663       0.145779
    1893.41760         2.7144        13.3361        14.7535        74.4881        12.7771        82.3975         1.5463        10.0876         9.4408         8.1555         7.4965        21.0457        15.0552       0.088887       0.130652
    1893.57000         2.7113        13.3374        15.1588        72.5648        13.9046        82.3975         1.5453        10.6160        10.5799         9.2892         8.2187        21.9683        14.6509       0.085940       0.127640
    1893.72240         2.7101        12.9830        14.7106        71.2765        14.2460        82.3975         1.5446        11.3201        11.6154        10.6549         9.2688        22.6220        14.8345       0.087577       0.129277
    1893.87480         2.7089        13.3702        14.9468        69.0625        14.3427        82.3975         1.5434        11.5197        11.7747        11.1341         9.8488        22.9536        15.1067       0.087667       0.129450
    1894.02720         2.7017        13.2412        14.9575        74.5173        15.0703        82.3975         1.5423        10.8918        10.9969        10.5699         9.8987        21.0620        14.7186       0.085734       0.127450
    1894.17960         2.6613        13.0261        14.7091        74.4885        14.6050        82.3975         1.5410        10.1167        10.2894         9.9509         9.8435        19.0433        14.8174       0.085141       0.126841
    1894.33200         2.6070        14.1553        15.1207        76.1338        14.2891        82.3975         1.5401         9.3728         9.6244         9.3747         9.6081        20.4282        15.0734       0.097156       0.139384
    1894.48440         2.5725        13.4699        14.7379        98.3217        14.3883        82.3975         1.5398         8.3547         8.6190         8.4718         9.0901        23.7314        14.6432       0.107312       0.149791
    1894.63680         2.5726        13.0060        14.8885       109.0496        15.3508        82.3975         1.5403         7.5104         7.7888         7.9268         8.7359        26.5357        14.4608       0.118332       0.161014
    1894.78920         2.5724        13.6377        15.2865       109.7761        20.9719        82.3975         1.5432         7.1610         7.4402         7.7196         8.6532        28.7274        77.9658       0.120228       0.162835
    1894.94160         2.5412        13.3197        10.8322       109.2596        26.1729        82.3975         1.5478         7.1386         7.3933         7.6585         8.7065        30.2873       353.1164       0.121338       0.164033
    1895.09400         2.5330        12.8687        12.9503       110.6598        16.7756        82.3975         1.5509         7.3597         7.5145         7.6900         8.8179        30.7660       129.2540       0.120440       0.163140
    1895.24640         2.5179        13.5206        13.6652       100.4900        11.7072        82.3975         1.5512         7.6138         7.6384         7.6958         8.7437        30.5524        16.1342       0.110445       0.153047
    1895.39880         2.5236        13.2955        17.2077        95.0596        10.9814        82.3975         1.5510         7.6347         7.6742         7.6437         8.6226        30.9892        13.2137       0.107224       0.149725
    1895.55120         2.5281        13.2657        21.2784        91.3096        10.9446        82.3975         1.5507         7.8608         7.9757         7.7723         8.6785        30.7933        13.3481       0.107383       0.149882
    1895.70360         2.5178        14.1544        17.9123        87.5800        11.3993        82.3975         1.5502         7.9721         8.1209         7.9424         8.6982        29.9742        13.3767       0.105286       0.147688
    1895.85600         2.4999        13.4285        13.9557        87.0051        11.6331        82.3975         1.5498         7.8113         8.0772         7.8764         8.5454        29.6122        12.8665       0.104672       0.147168
    1896.00840         2.4808        14.2475        15.5533        82.3483        12.1772        82.3975         1.5493         7.3832         7.7956         7.7882         8.3897        28.6461        12.8694       0.104168       0.146574
    1896.16080         2.4557        15.2034        14.4498        70.5254        12.2358        82.3975         1.5488         7.8382         8.4609         8.3972         8.8592        26.5774        13.3314       0.107504       0.150011
    1896.31320         2.4393        14.2459        15.1813        68.9270        17.1103        82.3975         1.5537         8.6005         9.1051         9.0172         9.2186        25.0425        13.0589       0.114387       0.156987
    1896.46560         2.4284        21.2097        14.9246        69.7575        18.0665        82.3975         1.5605         8.8664         9.3763         9.2007         9.3287        24.4033        13.2211       0.117963       0.160563
    1896.61800         2.4238        28.1085        14.6615        62.9240        14.8682        82.3975         1.5654         7.7559         8.3789         8.3200         8.6308        24.5909        13.2650       0.114260       0.156860
    1896.77040         2.4330        16.7198        15.0754        67.8448        15.0195        82.3975         1.5660         7.2260         8.0177         8.1473         8.5147        25.8593        13.0851       0.114319       0.156919
    1896.92280         2.4229        13.9224        14.8278        70.9655        15.0727        82.3975         1.5666         7.7165         8.4777         8.5834         8.8103        27.0391        13.2586       0.112310       0.154910
    1897.07520         2.4204        13.2879        14.6518        73.0708        14.7022        82.3975         1.5672         7.2289         8.0408         8.2757         8.4237        27.2423        13.2776       0.114482       0.157082
    1897.22760         2.4196        13.4107        14.9831        74.7629        15.0095        82.4333         1.5680         6.5860         7.4067         7.7123         7.9608        27.4916        13.1278       0.113882       0.156500
    1897.38000         2.4255        13.1627        14.7804        71.7067        14.7451        82.6512         1.5691         6.0230         6.9013         7.1881         7.6057        28.0192        13.2593       0.113160       0.155840
    1897.53240         2.4119        13.4140        14.6534        62.6132        14.9126        82.9138         1.5704         5.4986         6.4537         6.8246         7.3951        29.4948        13.2769       0.110535       0.153114
