~Version Information Block
VERS .                  2.0:  CWLS LOG ASCII STANDARD - VERSION 2.0
WRAP .                   NO:  One line per depth step
~Well Information Block
#MNEM.UNIT        Data Type   Information
#---------- ----------------  -----------
STRT .M          1768.14480:  START DEPTH
STOP .M          2733.75120:  STOP DEPTH
STEP .M             0.15240:  STEP
NULL .              -999.25:  NULL VALUE
COMP .                     :  COMPANY
WELL .              BNG-056:  WELL
FLD  .                     :  FIELD
LOC  .                     :  LOCATION
CTRY .                     :  COUNTRY
STAT .                     :  STATE
CNTY .                     :  COUNTY
SRVC .                     :  SERVICE COMPANY
DATE .                     :  DATE
API  .                     :  API NUMBER
UWI  .                     :  UNIQUE WELL ID
~Curve Information Block
#MNEM.UNIT         API CODE   Curve Description
#---------- ----------------  -----------------
DEPTH.M                    :  
ALCDLC.G/CC                 :  ALD LCRB Comp Density
ALDD .PTPM                 :  ALD Data Density
DGDD .PTPM                 :  DGR Data Density
DGRCC.GAPI                 :  DGR Comb Gamma Ray BCorr
EWDD .PTPM                 :  EWR Data Density
EWTEMP.DEGC                 :  EWR Temperature
EWXT .HR                   :  EWR Formation Exp Time
R09PC.OHMM                 :  9in Phase Resistivity BC
R15PC.OHMM                 :  15in Phase Resistivity BC
R27PC.OHMM                 :  27in Phase Resistivity BC
R39PC.OHMM                 :  39in Phase Resistivity BC
ROPA .M/HR                 :  Avg Rate of Penetration
TNDD .PTPM                 :  CTN Data Density
TNPL .V/V                  :  CTN Porosity Limestone
TNPS .V/V                  :  CTN Porosity Sandstone
~Parameter Information Block
#MNEM.UNIT            Value   Description
#---------- ----------------  -----------
PROJECT.     ZZZ_STUDY@PETROPISIK:  
SET  .      LWD_8_5_RM_TRIM:  
~Other Information Block
# 
~A       DEPTH         ALCDLC           ALDD           DGDD          DGRCC           EWDD         EWTEMP           EWXT          R09PC          R15PC          R27PC          R39PC           ROPA           TNDD           TNPL           TNPS 
# ...
    2208.58080         2.5781        14.1430        13.9155       108.7702        14.3032        90.9424         1.3680        14.4617        15.7616        14.3910        14.1998        20.3237        14.3550       0.115078       0.158265
    2208.73320         2.6300        11.4450        13.2810       122.5699        16.6581        90.9424         1.3676        13.2025        13.5818        13.3572        13.5419        23.8755        13.5862       0.125002       0.168290
    2208.88560         2.6459        11.1383        13.0307       127.4025        14.4510        90.9424         1.3671        11.9799        12.4131        12.3288        13.2378        22.0071        14.3197       0.136958       0.180258
    2209.03800         2.6070        15.2204        13.5171       134.4019        15.4367        90.9424         1.3674        11.0360        11.4980        11.4031        12.8775        21.4268        13.1898       0.143804       0.187012
    2209.19040         2.5974        16.0740        13.5019       150.6035        14.0782        90.9634         1.3676        10.1352        10.6468        10.8575        12.5849        25.6426        12.8278       0.150758       0.193865
    2209.34280         2.6086        14.8373        14.2111       150.7784        14.7253        91.2829         1.3681         9.6282        10.4448        10.8775        12.8554        28.0105        13.3008       0.159102       0.202011
    2209.49520         2.6398        13.8145        14.3085       162.6671        22.8567        91.5446         1.3709         9.8812        10.7768        11.4325        13.4937        27.9912        12.5115       0.161726       0.204626
    2209.64760         2.6612        15.3336        13.6611       154.7414        28.0103        91.5527         1.3754        10.7895        11.6332        12.2845        14.3568        26.9962        12.2098       0.152649       0.195746
    2209.80000         2.6697        13.7982        14.0281       140.5732        15.7224        91.5527         1.3773        11.9784        12.5099        12.7980        14.7638        26.1279        12.0794       0.134300       0.177600
    2209.95240         2.6689        16.5773        14.6092       129.5681        14.2694        91.5527         1.3767        12.8789        13.0403        12.7138        14.5781        25.5408        10.8239       0.117986       0.161184
    2210.10480         2.6765        17.9270        14.3680       124.7164        14.4292        91.5527         1.3761        13.0458        13.2130        12.5876        14.1921        22.8832        10.2341       0.104822       0.147922
    2210.25720         2.6744        17.3108        14.3424       121.5788        14.2505        91.5527         1.3754        12.8290        13.3651        12.7875        14.2194        20.8337        10.0718       0.105716       0.148816
    2210.40960         2.6580        17.3639        14.0415       123.0821        14.3031        91.5527         1.3745        12.3483        13.3023        12.8775        14.0713        22.2971         9.8854       0.110410       0.153522
    2210.56200         2.6538        16.8287        13.4979       129.7206        13.5570        91.5527         1.3737        12.2128        13.3177        13.1353        14.0859        24.2170        10.0217       0.116816       0.160116
    2210.71440         2.6592        16.4660        14.5088       132.4014        13.6840        91.5527         1.3731        12.2339        13.5360        13.1467        13.9991        23.4345        11.4317       0.121878       0.165178
    2210.86680         2.6611        18.1526        13.7891       138.1043        13.3740        91.5527         1.3724        12.1349        13.4187        12.8185        13.7047        23.3920        13.9608       0.125878       0.169178
    2211.01920         2.6565        19.7121        13.8814       132.7886        13.0983        91.5527         1.3720        12.0285        12.8491        12.2338        13.3304        24.9938        13.8484       0.137440       0.180740
    2211.17160         2.6360        23.1040        14.1153       140.8687        13.7002        91.5527         1.3717        11.2080        11.9114        11.4187        12.6635        25.8543        13.4796       0.142290       0.185590
    2211.32400         2.6265        17.0197        13.9311       144.8557        12.8057        91.5527         1.3712        10.1521        10.9258        10.8605        12.3672        25.1207        12.3656       0.147504       0.190756
    2211.47640         2.6268        15.3506        14.3829       153.2914        12.9269        91.5527         1.3709         9.6602        10.5352        10.8739        12.7176        25.4493        11.1940       0.160022       0.203022
    2211.62880         2.6213        14.7135        13.9564       153.3372        13.8798        91.5527         1.3710         9.8737        10.8527        11.2498        13.1077        27.3156        10.6576       0.164208       0.207150
    2211.78120         2.6194        11.7531        14.2900       152.8073        15.4951        91.5527         1.3717        10.7011        11.7057        11.7920        13.5481        28.4526        10.2689       0.174478       0.217178
    2211.93360         2.6769        11.3597        14.7532       150.2998        16.4775        91.5527         1.3730        11.8940        12.5991        12.2775        14.0249        28.0814        12.8352       0.180821       0.223454
    2212.08600         2.7983        14.8448        14.2437       137.7268        15.1824        91.5527         1.3732        12.7175        13.2913        12.4664        14.0063        26.5402        16.6348       0.193716       0.236044
    2212.23840         2.7690        16.2174        14.7985       127.9313        13.3894        91.5527         1.3732        13.5991        14.1843        13.0222        14.3445        25.1148        14.8026       0.210664       0.252687
    2212.39080         2.5269        15.5041        14.8312       125.7750        13.7276        91.5527         1.3737        14.0096        14.5563        13.3647        14.4487        27.3600        14.1520       0.235789       0.277534
    2212.54320         2.3247        17.2036        14.2258       139.1819        12.8476        91.5527         1.3747        12.6241        13.0644        12.2796        13.2632        32.1783        13.3577       0.278304       0.320077
    2212.69560         2.1821        18.8009        14.2387       153.1069        12.9796        91.5527         1.3760        10.3735        10.8134        10.5238        11.7083        35.3348        11.1799       0.315108       0.357430
    2212.84800         2.1627        18.0549        14.8056       150.4767        13.2015        91.5527         1.3774        10.4606        10.9208        10.5506        11.8875        36.4565        12.4622       0.324112       0.366712
    2213.00040         2.3866        17.6029        14.2447       153.5397        13.4750        91.5527         1.3788        10.8152        11.8425        11.2668        12.2980        36.4019        15.5930       0.299019       0.341317
    2213.15280         2.5895        18.2762        13.9977       156.8943        14.4463        91.5678         1.3802         9.7330        11.2240        11.1584        12.1783        35.8057        15.6528       0.232598       0.274510
    2213.30520         2.6102        18.3197        13.6066       162.6759        14.0528        91.7551         1.3813         9.3564        10.0567        10.3110        11.5147        33.3429        14.4610       0.186355       0.228802
    2213.45760         2.5981        15.8790        13.2308       162.5476        13.8264        92.0804         1.3820         8.9616         9.1440         9.1809        10.5995        29.7621        14.3184       0.180206       0.222791
    2213.61000         2.5806        16.4922        13.2996       167.2520        14.2204        92.1631         1.3827         6.9290         7.1587         7.0916         8.7576        28.5676        14.8343       0.201360       0.243520
