~Version Information Block
VERS .                  2.0:  CWLS LOG ASCII STANDARD - VERSION 2.0
WRAP .                   NO:  One line per depth step
~Well Information Block
#MNEM.UNIT        Data Type   Information
#---------- ----------------  -----------
STRT .M          1768.14480:  START DEPTH
STOP .M          2733.75120:  STOP DEPTH
STEP .M             0.15240:  STEP
NULL .              -999.25:  NULL VALUE
COMP .                     :  COMPANY
WELL .              BNG-056:  WELL
FLD  .                     :  FIELD
LOC  .                     :  LOCATION
CTRY .                     :  COUNTRY
STAT .                     :  STATE
CNTY .                     :  COUNTY
SRVC .                     :  SERVICE COMPANY
DATE .                     :  DATE
API  .                     :  API NUMBER
UWI  .                     :  UNIQUE WELL ID
~Curve Information Block
#MNEM.UNIT         API CODE   Curve Description
#---------- ----------------  -----------------
DEPTH.M                    :  
ALCDLC.G/CC                 :  ALD LCRB Comp Density
ALDD .PTPM                 :  ALD Data Density
DGDD .PTPM                 :  DGR Data Density
DGRCC.GAPI                 :  DGR Comb Gamma Ray BCorr
EWDD .PTPM                 :  EWR Data Density
EWTEMP.DEGC                 :  EWR Temperature
EWXT .HR                   :  EWR Formation Exp Time
R09PC.OHMM                 :  9in Phase Resistivity BC
R15PC.OHMM                 :  15in Phase Resistivity BC
R27PC.OHMM                 :  27in Phase Resistivity BC
R39PC.OHMM                 :  39in Phase Resistivity BC
ROPA .M/HR                 :  Avg Rate of Penetration
TNDD .PTPM                 :  CTN Data Density
TNPL .V/V                  :  CTN Porosity Limestone
TNPS .V/V                  :  CTN Porosity Sandstone
~Parameter Information Block
#MNEM.UNIT            Value   Description
#---------- ----------------  -----------
PROJECT.     ZZZ_STUDY@PETROPISIK:  
SET  .      LWD_8_5_RM_TRIM:  
~Other Information Block
# 
~A       DEPTH         ALCDLC           ALDD           DGDD          DGRCC           EWDD         EWTEMP           EWXT          R09PC          R15PC          R27PC          R39PC           ROPA           TNDD           TNPL           TNPS 
# ...
    1954.68240         2.6333        16.0466        12.6326       148.1913        14.5291        83.6182         1.1161         2.9037         2.9001         2.8399         2.9481        31.7814        14.0032       0.249921       0.290921
    1954.83480         2.6382        14.7519        12.5725       149.7836        13.6329        83.6182         1.1172         2.8143         2.8110         2.7535         2.8539        31.8268        12.9451       0.255011       0.296011
    1954.98720         2.6359        13.6490        13.0263       151.0270        15.5452        83.6182         1.1187         2.7260         2.7344         2.6855         2.7998        31.6268        12.6304       0.263215       0.304240
    1955.13960         2.6351        13.5563        13.4794       150.2192        16.5919        83.6182         1.1206         2.6900         2.7024         2.6868         2.8008        31.5568        12.1397       0.266979       0.308053
    1955.29200         2.6342        13.3976        14.5163       152.7861        15.1087        83.6182         1.1222         2.7023         2.6956         2.6925         2.8004        31.8136        12.0991       0.267536       0.308536
    1955.44440         2.6522        13.0201        16.6397       152.1442        13.6074        83.6182         1.1233         2.6908         2.6723         2.6670         2.7700        31.8764        11.5504       0.268311       0.309341
    1955.59680         2.6621        12.8411        14.0625       147.0333        13.3708        83.6182         1.1242         2.7134         2.6834         2.6447         2.7699        31.7292        13.2046       0.270846       0.311946
    1955.74920         2.6809        13.3117        12.6180       144.5861        15.3415        83.6182         1.1256         2.6707         2.6367         2.5772         2.7322        31.7911        15.9788       0.279426       0.320558
    1955.90160         2.6788        13.0799        12.6088       148.9656        16.1383        83.6182         1.1275         2.7132         2.6781         2.6402         2.8501        31.9429        15.6629       0.283293       0.324493
    1956.05400         2.6792        12.3410        12.9304       147.8074        15.0541        83.6182         1.1289         2.9968         2.9633         2.9512         3.2250        31.7719        16.8080       0.279288       0.320452
    1956.20640         2.6784        12.0552        12.9975       149.2346        15.4146        83.6182         1.1301         3.3515         3.3712         3.4379         3.7686        30.7740        19.7005       0.273216       0.314278
    1956.35880         2.6345        12.6655        12.4658       150.8120        13.6994        83.6284         1.1308         4.1441         4.2113         4.4306         4.7941        28.9977        20.8867       0.269011       0.310011
    1956.51120         2.5219        12.7750        12.5475       151.6604        12.8498        83.8254         1.1309         5.9452         5.9377         6.1898         6.3385        28.3856        17.9805       0.268181       0.309181
    1956.66360         2.3628        12.2103        12.4907       144.7886        11.7832        84.1477         1.1255        11.6461         9.9370         9.2778         8.4926        25.9110        14.6949       0.260535       0.301578
    1956.81600         2.2916        12.1304        12.2583       137.6355        11.4189        84.2285         1.0476        23.6031        16.1499        13.2242        10.5551        18.6444        15.0352       0.242240       0.283428
    1956.96840         2.3812        12.7215        11.9798       122.2273        11.3257        84.2285         0.8283        27.9871        19.8421        15.2774        11.1972         9.9306        15.7175       0.194960       0.236716
    1957.12080         2.4855        13.8643        12.6838        91.7160        11.1825        84.2285         0.6068        21.3947        18.5012        14.4897        10.5775         6.9822        15.6564       0.130808       0.172966
    1957.27320         2.5398        16.5309        12.7786        70.8078        12.1682        84.2285         0.5242        17.4403        15.7092        13.0910         9.9329        12.3016        15.2249       0.086449       0.127863
    1957.42560         2.5788        20.2871        12.0341        67.1827        14.3049        84.2285         0.5148        12.8734        12.2251        10.8220         8.9973        14.7499        14.7838       0.077682       0.118784
    1957.57800         2.6208        18.9102        12.0400        75.1930        13.7920        84.2285         0.5118         8.4932         8.7214         8.2040         7.8263        14.9255        15.9484       0.095380       0.137352
    1957.73040         2.6529        15.4400        11.7675        91.5725        11.8281        84.2285         0.5093         5.9667         6.5345         6.5932         7.0948        18.3158        17.5693       0.124770       0.167377
    1957.88280         2.6695        16.3541        11.6688       117.9917        11.3534        84.2285         0.5077         4.9795         5.5550         6.0232         7.0304        23.2098        15.6285       0.150350       0.192885
    1958.03520         2.6663        17.7162        12.5648       142.2533        11.6562        84.2285         0.5070         4.8924         5.4414         6.1500         7.5742        26.3357        14.1258       0.161558       0.203958
    1958.18760         2.6327        15.8802        12.4512       153.7025        11.9504        84.2285         0.5064         5.5964         6.1104         6.9047         8.5810        27.3574        15.1140       0.154323       0.196782
    1958.34000         2.5990        16.6829        11.7978       148.7981        12.2693        84.2285         0.5053         6.8391         6.9890         7.5623         9.1354        25.3823        15.9487       0.132700       0.175380
    1958.49240         2.5828        21.0300        12.2552       138.5468        12.7529        84.2285         0.5032         8.0038         7.6577         7.6316         8.9143        21.7892        16.2278       0.114307       0.156984
    1958.64480         2.5860        20.1757        14.3476       125.4208        12.5745        84.2285         0.5008         8.4619         8.1818         7.5212         8.3933        20.2122        15.5300       0.112929       0.155592
    1958.79720         2.6098        17.5100        14.4909       116.2343        12.6518        84.2285         0.4990         8.3185         8.3606         7.4721         7.8986        21.3527        14.0998       0.122228       0.164993
    1958.94960         2.6204        14.9809        13.9333       119.0348        13.3141        84.2285         0.4981         7.9019         8.1766         7.4122         7.5540        22.9446        13.5056       0.135064       0.177798
    1959.10200         2.6245        15.7464        13.2241       124.7876        14.5507        84.2285         0.4977         7.3361         7.6995         7.2848         7.3169        24.1231        13.4119       0.144496       0.187128
    1959.25440         2.6295        15.9905        13.0656       131.3244        15.9328        84.2285         0.4982         6.8381         7.2235         7.0541         7.1477        25.0274        13.5065       0.153551       0.196082
    1959.40680         2.6319        14.1585        12.5792       133.5615        14.4128        84.2285         0.4981         6.3965         6.6739         6.6606         6.9268        24.7917        12.7832       0.159348       0.201777
    1959.55920         2.6234        14.9120        12.1220       134.3062        12.8029        84.2285         0.4969         6.0718         6.2828         6.3076         6.7298        23.4740        13.1020       0.165378       0.207632
    1959.71160         2.6149        18.1583        12.1417       140.5588        12.4159        84.2285         0.4949         5.7648         6.0540         6.0303         6.5714        21.6038        13.3012       0.174268       0.216394
