~Version Information Block
VERS .                  2.0:  CWLS LOG ASCII STANDARD - VERSION 2.0
WRAP .                   NO:  One line per depth step
~Well Information Block
#MNEM.UNIT        Data Type   Information
#---------- ----------------  -----------
STRT .M          1768.14480:  START DEPTH
STOP .M          2733.75120:  STOP DEPTH
STEP .M             0.15240:  STEP
NULL .              -999.25:  NULL VALUE
COMP .                     :  COMPANY
WELL .              BNG-056:  WELL
FLD  .                     :  FIELD
LOC  .                     :  LOCATION
CTRY .                     :  COUNTRY
STAT .                     :  STATE
CNTY .                     :  COUNTY
SRVC .                     :  SERVICE COMPANY
DATE .                     :  DATE
API  .                     :  API NUMBER
UWI  .                     :  UNIQUE WELL ID
~Curve Information Block
#MNEM.UNIT         API CODE   Curve Description
#---------- ----------------  -----------------
DEPTH.M                    :  
ALCDLC.G/CC                 :  ALD LCRB Comp Density
ALDD .PTPM                 :  ALD Data Density
DGDD .PTPM                 :  DGR Data Density
DGRCC.GAPI                 :  DGR Comb Gamma Ray BCorr
EWDD .PTPM                 :  EWR Data Density
EWTEMP.DEGC                 :  EWR Temperature
EWXT .HR                   :  EWR Formation Exp Time
R09PC.OHMM                 :  9in Phase Resistivity BC
R15PC.OHMM                 :  15in Phase Resistivity BC
R27PC.OHMM                 :  27in Phase Resistivity BC
R39PC.OHMM                 :  39in Phase Resistivity BC
ROPA .M/HR                 :  Avg Rate of Penetration
TNDD .PTPM                 :  CTN Data Density
TNPL .V/V                  :  CTN Porosity Limestone
TNPS .V/V                  :  CTN Porosity Sandstone
~Parameter Information Block
#MNEM.UNIT            Value   Description
#---------- ----------------  -----------
PROJECT.     ZZZ_STUDY@PETROPISIK:  
SET  .      LWD_8_5_RM_TRIM:  
~Other Information Block
# 
~A       DEPTH         ALCDLC           ALDD           DGDD          DGRCC           EWDD         EWTEMP           EWXT          R09PC          R15PC          R27PC          R39PC           ROPA           TNDD           TNPL           TNPS 
# ...
    2084.22240         2.3744        15.1297        82.8648        37.2886        12.2854        89.1113         0.5896         3.7035         3.9594         3.9904         4.0089        25.7548        11.0774       0.108242       0.151124
    2084.37480         2.3663        14.0814        71.9047        37.0460        13.6128        89.1113         0.5890         3.6476         3.8732         3.8854         3.8955        25.3620        10.5612       0.109498       0.152315
    2084.52720         2.3671        14.1927        23.5822        36.7415        13.7250        89.1113         0.5885         3.5508         3.7896         3.7998         3.8044        24.5257        10.4374       0.111311       0.154196
    2084.67960         2.3643        12.9154        15.9838        36.5248        11.2542        89.1113         0.5872         3.5414         3.7614         3.7579         3.7496        24.4261        10.8417       0.112550       0.155450
    2084.83200         2.3629        13.6479        14.6185        34.4280        10.2869        89.1113         0.5852         3.3394         3.5087         3.5120         3.5520        24.0267        11.8399       0.111116       0.154016
    2084.98440         2.3582        14.7092        14.1010        40.9350        11.8660        89.1113         0.5834         3.1381         3.2962         3.3350         3.4359        23.0814        10.6289       0.116276       0.159266
    2085.13680         2.3447        16.9144        13.1991        34.1295        14.5913        89.1113         0.5835         3.1450         3.3301         3.4049         3.5005        24.2440        10.7663       0.122554       0.165554
    2085.28920         2.3389        18.1839        11.6213        37.2244        13.8695        89.1113         0.5843         3.1422         3.3135         3.3753         3.4764        28.2451        11.2453       0.123564       0.166564
    2085.44160         2.3309        17.5238         7.3194        35.6390        12.6503        89.1113         0.5852         3.0801         3.2146         3.2689         3.3968        32.0992        11.8934       0.121806       0.164806
    2085.59400         2.3454        17.5555         6.5028        35.0724        11.9767        89.1113         0.5859         3.1070         3.2446         3.2809         3.3957        34.4260        13.1897       0.123428       0.166428
    2085.74640         2.3567        16.7923        18.9029        36.9744        13.4730        89.1113         0.5870         3.0769         3.2523         3.2810         3.3934        35.1385        12.9319       0.112666       0.155569
    2085.89880         2.3415        15.8554        42.2837        37.3816        14.0773        89.1113         0.5888         3.2052         3.4125         3.4375         3.5063        35.8493        13.0596       0.110813       0.153713
    2086.05120         2.3487        16.6207        17.8667        37.7482        13.1817        89.1113         0.5903         3.2354         3.4041         3.4296         3.4835        36.4180        13.3448       0.111553       0.154452
    2086.20360         2.3606        13.8240        20.1096        38.3921        13.2122        89.1113         0.5916         3.2434         3.4430         3.4807         3.5442        36.0138        11.3949       0.105681       0.148481
    2086.35600         2.3620        13.9563        16.5286        39.3326        16.2776        89.1113         0.5935         3.3551         3.5615         3.5421         3.5836        35.3426        13.3611       0.104960       0.147760
    2086.50840         2.3680        14.5409        17.8326        44.1817        20.1451        89.1113         0.5965         3.0766         3.2575         3.2592         3.3916        33.0607        10.9548       0.106333       0.149133
    2086.66080         2.3566        12.7480         8.6053        45.8240        17.5062        89.1113         0.5994         2.9632         3.2530         3.4026         3.6080        30.8696         9.7745       0.105409       0.148216
    2086.81320         2.3392        22.6906        12.2515        39.1912        19.2056        89.1113         0.6056         3.3168         3.7411         4.0332         4.1494        32.1314        15.9707       0.107194       0.150067
    2086.96560         2.3798       117.4748        13.5654        33.8482        30.4685        89.1113         0.6406         3.6716         4.0895         4.4125         4.4178        33.1557        92.1549       0.097020       0.139589
    2087.11800         2.3981        61.7147        15.8365        36.8174        64.3339        89.1113         0.9510         4.1639         4.5684         4.7107         4.5551        33.0022       195.8652       0.089724       0.131988
    2087.27040         2.4284        10.8778        14.8697        41.9081        36.8285        89.1113         1.1979         4.0353         4.4467         4.5365         4.3997        32.0985        38.9041       0.085310       0.127296
    2087.42280         2.4186        11.5612        16.9892        45.2692        21.7302        89.1113         1.4324         3.4871         3.8177         3.8279         3.8100        28.7208        16.0294       0.084404       0.126319
    2087.57520         2.4177        12.6797        19.9044        42.8912        32.4740        89.1113         1.4437         3.4086         3.7607         3.7460         3.7186        26.7388        17.2739       0.087914       0.129998
    2087.72760         2.4357        13.3998        17.7295        43.4307        30.9165        89.1113         1.4409         2.9635         3.3680         3.3565         3.3939        15.6449        17.4102       0.097618       0.140154
    2087.88000         2.4211        13.3517        12.0187        44.0592        23.1043        89.0926         1.4175         2.3770         2.8933         3.0931         3.2443         9.7014        16.4290       0.100900       0.143600
    2088.03240         2.3704        12.7437        11.3017        46.8843        66.9800        88.9708         1.4186         2.4032         3.1380         3.5687         3.6357         9.5410        15.2276       0.102380       0.145123
    2088.18480         2.3420        11.9645        12.6103        46.7550       106.5192        88.7497         1.4284         2.5165         3.2301         3.6717         3.7021        19.7747        14.8130       0.108179       0.151102
    2088.33720         2.3304        12.0733        13.9396        41.1134        15.2086        88.5634         1.4347         2.5730         3.0581         3.4454         3.5643        24.0191        14.1416       0.114797       0.157797
    2088.48960         2.3367        12.4405        11.4735        33.6693        15.6576        88.5010         1.4312         2.5845         2.9812         3.2820         3.4621        23.2529        13.9184       0.115525       0.158498
    2088.64200         2.3327        11.7409        10.8530        32.7372        14.7980        88.5010         1.4189         2.5249         2.9189         3.1210         3.3578        18.4091        13.0730       0.114032       0.156960
    2088.79440         2.3333        10.8441        10.2413        36.6330        14.0649        88.5010         1.4054         2.4863         2.9276         3.1309         3.3573        11.7207        13.8897       0.115376       0.158406
    2088.94680         2.3375        10.0406        10.3783        39.2096        12.8141        88.5010         1.4001         2.5508         3.0933         3.3347         3.4639        10.0757        15.5474       0.118290       0.161358
    2089.09920         2.3441         9.7747        11.0253        37.6837        11.3877        88.5010         1.3990         2.6688         3.2208         3.4646         3.5121        15.7657        17.6942       0.114941       0.157941
    2089.25160         2.3455         9.8705         9.7214        36.5596         8.4654        88.5010         1.3978         2.7112         3.1432         3.3280         3.3857        23.7043        18.1196       0.114791       0.157791
