~Version Information Block
VERS .                  2.0:  CWLS LOG ASCII STANDARD - VERSION 2.0
WRAP .                   NO:  One line per depth step
~Well Information Block
#MNEM.UNIT        Data Type   Information
#---------- ----------------  -----------
STRT .M          1768.14480:  START DEPTH
STOP .M          2733.75120:  STOP DEPTH
STEP .M             0.15240:  STEP
NULL .              -999.25:  NULL VALUE
COMP .                     :  COMPANY
WELL .              BNG-056:  WELL
FLD  .                     :  FIELD
LOC  .                     :  LOCATION
CTRY .                     :  COUNTRY
STAT .                     :  STATE
CNTY .                     :  COUNTY
SRVC .                     :  SERVICE COMPANY
DATE .                     :  DATE
API  .                     :  API NUMBER
UWI  .                     :  UNIQUE WELL ID
~Curve Information Block
#MNEM.UNIT         API CODE   Curve Description
#---------- ----------------  -----------------
DEPTH.M                    :  
ALCDLC.G/CC                 :  ALD LCRB Comp Density
ALDD .PTPM                 :  ALD Data Density
DGDD .PTPM                 :  DGR Data Density
DGRCC.GAPI                 :  DGR Comb Gamma Ray BCorr
EWDD .PTPM                 :  EWR Data Density
EWTEMP.DEGC                 :  EWR Temperature
EWXT .HR                   :  EWR Formation Exp Time
R09PC.OHMM                 :  9in Phase Resistivity BC
R15PC.OHMM                 :  15in Phase Resistivity BC
R27PC.OHMM                 :  27in Phase Resistivity BC
R39PC.OHMM                 :  39in Phase Resistivity BC
ROPA .M/HR                 :  Avg Rate of Penetration
TNDD .PTPM                 :  CTN Data Density
TNPL .V/V                  :  CTN Porosity Limestone
TNPS .V/V                  :  CTN Porosity Sandstone
~Parameter Information Block
#MNEM.UNIT            Value   Description
#---------- ----------------  -----------
PROJECT.     ZZZ_STUDY@PETROPISIK:  
SET  .      LWD_8_5_RM_TRIM:  
~Other Information Block
# 
~A       DEPTH         ALCDLC           ALDD           DGDD          DGRCC           EWDD         EWTEMP           EWXT          R09PC          R15PC          R27PC          R39PC           ROPA           TNDD           TNPL           TNPS 
# ...
    2649.01680         2.7161        24.5517        39.8268       165.6208        16.8978       100.0976         0.7136         5.4179         5.6820         5.7975         6.9475        25.3385        16.0475       0.186834       0.229834
    2649.16920         2.7146        28.4483        19.6403       161.8539        16.0385       100.0976         0.7148         5.0332         5.2936         5.3922         6.5897        26.8836        15.1009       0.187906       0.230894
    2649.32160         2.6983        20.2567        18.6609       164.6260        17.9099       100.0976         0.7164         4.9643         5.1962         5.3243         6.5284        28.0297        15.9353       0.192118       0.235047
    2649.47400         2.6685        33.9486        17.9040       154.5874        17.8089       100.0976         0.7169         5.7713         5.9366         5.9538         7.1711        25.1948        16.1254       0.183172       0.226304
    2649.62640         2.6731        89.7237        19.0774       154.1053        16.5923       100.0976         0.7164         6.8360         6.9927         6.7147         7.8225        20.5316        15.6588       0.174546       0.217881
    2649.77880         2.6835       138.5387        24.6663       149.9145        16.2681       100.0976         0.7164         6.8238         7.1433         6.7750         7.7127        19.2516        17.2110       0.165552       0.209071
    2649.93120         2.6647        28.0995        38.5945       152.8808        15.4366       100.0976         0.7164         6.4729         7.0343         6.9946         7.8643        22.5074        18.6656       0.159426       0.203047
    2650.08360         2.6076        12.2526        50.5709       146.9557        14.9364       100.0976         0.7160         7.4693         8.2940         8.5156         9.3083        25.4244        17.4763       0.153972       0.197694
    2650.23600         2.5323        13.5644       108.1852       119.6888        16.4582       100.0976         0.7160         9.2717        10.4655        10.5389        11.1535        23.6644        16.8172       0.141776       0.185600
    2650.38840         2.4974        17.3054        43.9020       102.0278        15.8660       100.0976         0.7158        11.4125        12.8194        12.2351        12.6653        21.4022        17.5954       0.124887       0.168787
    2650.54080         2.5175        20.8659        16.7203        90.6838        14.4005       100.1040         0.7147        12.3059        14.1793        13.4330        13.5443        21.4615        19.5557       0.120880       0.164807
    2650.69320         2.5311        16.8879        19.3516        93.4618        15.5759       100.2379         0.7140        15.6891        17.9883        16.8712        16.0499        21.8785        18.6166       0.122412       0.166412
    2650.84560         2.5559        15.0915        23.7181       105.2578        17.3099       100.5817         0.7134        15.9622        18.5132        17.3556        16.6540        21.2751        17.6506       0.122278       0.166278
    2650.99800         2.5779        17.7845        23.6837       115.0697        25.7203       100.7080         0.7132        14.1721        16.5833        16.8562        17.0800        20.2094        18.1191       0.122704       0.166672
    2651.15040         2.5231        17.7818        23.4036       113.7037        59.3037       100.7080         0.7152        16.9746        19.5985        19.6384        19.5028        18.5971        19.0637       0.119389       0.163289
    2651.30280         2.4620        17.1804        21.1214        97.3358        70.1655       100.7080         0.7198        21.0203        24.3302        22.6566        21.5225        18.1663        17.5838       0.117797       0.161697
    2651.45520         2.4451        19.9881        20.6887        88.7015        26.8261       100.7080         0.7223        28.4064        31.4807        26.4554        24.2633        19.1048        17.3627       0.119779       0.163679
    2651.60760         2.4615        17.9459        24.5792        88.4578        25.3480       100.7080         0.7241        26.0264        28.5961        24.6929        23.4022        20.7148        20.3032       0.120552       0.164490
    2651.76000         2.4542        25.7875        24.4648        81.8264        34.0539       100.7080         0.7287        19.3671        22.0352        21.8912        21.8240        23.5408        31.7458       0.119840       0.163760
    2651.91240         2.4245        46.6695        16.8708        72.0361        29.7320       100.7080         0.7341        17.3411        20.4477        20.7358        21.4306        24.6056        36.6194       0.112880       0.156638
    2652.06480         2.4243        44.5696        17.2470        61.5213        32.0038       100.7080         0.7385        18.0375        23.0194        22.5685        23.0930        23.5033        37.9573       0.105174       0.148787
    2652.21720         2.4327        18.7307        18.2292        58.5074        39.6184       100.7080         0.7426        18.7373        23.4079        22.7723        23.4799        22.2095        58.0601       0.100442       0.143942
    2652.36960         2.4315        17.2304        17.5109        53.0636        30.2111       100.7080         0.7455        15.6721        18.8603        19.8922        21.5943        21.5302        41.3995       0.102738       0.146330
    2652.52200         2.4203        17.8706        16.0630        51.2002        24.8014       100.7080         0.7478        15.1349        18.6070        20.1492        22.1339        22.6633        17.6623       0.106092       0.149792
    2652.67440         2.4323        20.2539        17.1781        61.5341        39.9937       100.7080         0.7517        16.0566        19.4879        20.5087        22.8911        23.6408        19.7072       0.105854       0.149504
    2652.82680         2.4532        19.3884        17.1589        69.0730        36.3414       100.7080         0.7565        15.4680        18.1951        19.1752        21.8245        24.7560        22.3153       0.109189       0.152891
    2652.97920         2.4405        20.2006        16.4810        68.6690        21.6327       100.7080         0.7598        15.0082        17.2569        18.4554        21.0426        25.8420        27.9256       0.109896       0.153590
    2653.13160         2.4183        22.2654        16.9754        60.0186        18.9300       100.7080         0.7610        16.7506        19.8802        20.2744        22.5310        24.5206        24.5842       0.102132       0.145623
    2653.28400         2.4243        21.6166        16.6989        50.2682        17.7363       100.7080         0.7611        17.8694        22.1650        20.9508        23.1300        21.8185        22.9308       0.098080       0.141536
    2653.43640         2.4476        20.6665        15.7944        57.3692        18.4818       100.7080         0.7608        16.6919        20.1797        19.3978        21.7547        19.7052        41.1918       0.100546       0.144104
    2653.58880         2.4438        21.5994        15.3358        66.5305        25.8906       100.7080         0.7616        14.5642        17.3481        17.8114        20.4642        18.7144       113.6137       0.103680       0.147280
    2653.74120         2.4203        24.3162        16.1064        59.3218        33.9513       100.7080         0.7655        14.4624        17.8629        18.8988        21.4388        19.2527        83.7102       0.107558       0.151158
    2653.89360         2.4220        21.4509        15.6257        57.4093        43.0453       100.7080         0.7691        16.7867        20.9992        21.8387        23.9822        16.9822        21.5128       0.111085       0.154685
    2654.04600         2.4408        16.3803        16.1083        66.9648        64.9568       100.7080         0.7720        18.2706        22.1421        22.7662        24.8527        13.0338        12.6054       0.115236       0.158900
