~Version Information Block
VERS .                  2.0:  CWLS LOG ASCII STANDARD - VERSION 2.0
WRAP .                   NO:  One line per depth step
~Well Information Block
#MNEM.UNIT        Data Type   Information
#---------- ----------------  -----------
STRT .M          1768.14480:  START DEPTH
STOP .M          2733.75120:  STOP DEPTH
STEP .M             0.15240:  STEP
NULL .              -999.25:  NULL VALUE
COMP .                     :  COMPANY
WELL .              BNG-056:  WELL
FLD  .                     :  FIELD
LOC  .                     :  LOCATION
CTRY .                     :  COUNTRY
STAT .                     :  STATE
CNTY .                     :  COUNTY
SRVC .                     :  SERVICE COMPANY
DATE .                     :  DATE
API  .                     :  API NUMBER
UWI  .                     :  UNIQUE WELL ID
~Curve Information Block
#MNEM.UNIT         API CODE   Curve Description
#---------- ----------------  -----------------
DEPTH.M                    :  
ALCDLC.G/CC                 :  ALD LCRB Comp Density
ALDD .PTPM                 :  ALD Data Density
DGDD .PTPM                 :  DGR Data Density
DGRCC.GAPI                 :  DGR Comb Gamma Ray BCorr
EWDD .PTPM                 :  EWR Data Density
EWTEMP.DEGC                 :  EWR Temperature
EWXT .HR                   :  EWR Formation Exp Time
R09PC.OHMM                 :  9in Phase Resistivity BC
R15PC.OHMM                 :  15in Phase Resistivity BC
R27PC.OHMM                 :  27in Phase Resistivity BC
R39PC.OHMM                 :  39in Phase Resistivity BC
ROPA .M/HR                 :  Avg Rate of Penetration
TNDD .PTPM                 :  CTN Data Density
TNPL .V/V                  :  CTN Porosity Limestone
TNPS .V/V                  :  CTN Porosity Sandstone
~Parameter Information Block
#MNEM.UNIT            Value   Description
#---------- ----------------  -----------
PROJECT.     ZZZ_STUDY@PETROPISIK:  
SET  .      LWD_8_5_RM_TRIM:  
~Other Information Block
# 
~A       DEPTH         ALCDLC           ALDD           DGDD          DGRCC           EWDD         EWTEMP           EWXT          R09PC          R15PC          R27PC          R39PC           ROPA           TNDD           TNPL           TNPS 
# ...
    2457.29760         2.5900        17.6535         9.9115       129.7509        11.4672        98.2666         0.6142        26.5913        29.6103        29.0844        29.8888        16.3916         9.7342       0.132238       0.175838
    2457.45000         2.6197        17.5646         9.9683       138.0176        11.3756        98.2666         0.6093        28.9723        29.8431        28.8993        30.3528        15.2278        10.2727       0.138700       0.182300
    2457.60240         2.5915        15.1611         9.9083       124.5728        11.5163        98.2666         0.6043        20.8514        23.0464        23.8214        26.5953        17.1160        10.2213       0.130100       0.173800
    2457.75480         2.5893        13.4844        10.0043       127.3852        11.9124        98.2666         0.6007        29.5016        31.2758        31.3602        33.3100        19.4013        10.2223       0.130071       0.173771
    2457.90720         2.5581        12.0657         9.6861       126.7166        11.3081        98.2666         0.5971        20.6824        23.2390        25.5206        28.8319        18.3357         9.8872       0.128811       0.172511
    2458.05960         2.5618        12.9769         9.4069       112.4867        10.6764        98.2666         0.5921        22.8255        26.1615        27.4922        31.2247        17.4579         9.6661       0.120812       0.164506
    2458.21200         2.5696        15.1144         9.1641       111.7981        11.6915        98.2666         0.5870        26.5601        31.6033        32.0103        34.0843        15.7506         9.7783       0.116360       0.159960
    2458.36440         2.5816        14.9718         9.2094       128.0961        12.9321        98.2666         0.5818        25.6048        30.7099        30.6879        33.4428        15.0463         9.5577       0.113226       0.156816
    2458.51680         2.5700        15.0420         9.3263       123.3936        12.0067        98.3046         0.5770        27.0389        33.6439        33.9492        37.4260        15.1926         9.4318       0.108423       0.151890
    2458.66920         2.5874        17.1560         9.4041       111.0293        11.3818        98.6405         0.5715        27.6313        35.6366        34.7552        38.0133        15.6058         9.5791       0.098223       0.141410
    2458.82160         2.6089        16.2561         9.4805       110.8731        12.8309        98.8769         0.5653        27.2392        35.8933        35.1862        38.6458        13.6048         9.5697       0.097167       0.140253
    2458.97400         2.6133        15.5115         9.3354       107.4126        13.4142        98.8769         0.5554        26.3271        29.5375        32.2429        33.7364        10.0045         9.7806       0.092848       0.135784
    2459.12640         2.5616        14.2165         9.5310       101.7892        11.8452        98.8769         0.5449        21.5852        27.8534        29.4519        33.0551        10.0978         9.8553       0.089018       0.131706
    2459.27880         2.5179        13.4852         9.7429       105.6190        11.7391        98.8769         0.5384        28.6691        39.9800        37.8156        40.7927        14.8837         9.7994       0.103048       0.146263
    2459.43120         2.5316        14.3178         9.8285       109.5102        11.3144        98.8769         0.5344        30.7264        40.7211        39.4088        41.3453        16.3645        10.0052       0.119648       0.163348
    2459.58360         2.5432        15.0282         9.9890       104.4144        11.1081        98.8769         0.5303        26.6481        35.5185        36.2415        39.7591        17.3004         9.9977       0.124915       0.168615
    2459.73600         2.5789        15.4002        10.0806       103.1589        12.0740        98.8769         0.5273        26.0677        35.4375        35.5052        40.1426        19.1431        10.4720       0.126556       0.170256
    2459.88840         2.5871        16.6915        10.3073       106.8218        11.1858        98.8769         0.5241        25.0481        32.0635        34.3149        37.9566        19.6674        15.3797       0.127303       0.171003
    2460.04080         2.6062        19.2910         9.9664       116.7858        10.3605        98.8769         0.5207        31.1591        36.0233        36.6736        41.0528        19.6732        22.7366       0.130773       0.174473
    2460.19320         2.6069        21.8265         9.4428       127.2846        14.8623        98.8769         0.5330        27.5098        32.9742        32.1887        37.0125        21.2024        72.1709       0.130066       0.173766
    2460.34560         2.5686        21.7468         9.1666       132.4950        32.6739        98.8769         0.5616        23.0139        27.5808        28.3438        34.1609        22.9451       271.8786       0.128591       0.172291
    2460.49800         2.5243        18.6648         9.1334       121.2120       114.9050        98.8769         0.5527        28.2286        33.7582        32.2857        37.9791        21.6544       284.5067       0.131392       0.175092
    2460.65040         2.5265        19.9863         9.1788       114.1922       181.8194        98.8769         0.6643        30.4120        36.7257        34.4147        39.7601        20.4209        13.4384       0.139353       0.183019
    2460.80280         2.5636        23.0078         9.1718       118.0953        39.4498        98.8769         1.0119        27.3910        33.2920        32.7692        37.9324        21.5692        16.6802       0.147192       0.190757
    2460.95520         2.6052        20.4373         9.2100       126.8214         9.9726        98.8769         1.2764        21.8713        26.9299        28.8530        33.8814        22.9831        16.2358       0.150382       0.193918
    2461.10760         2.6058        16.0064         9.1547       136.1530        10.0364        98.8769         1.2736        18.6409        23.3811        26.2777        31.8774        22.7540        15.2545       0.142022       0.185661
    2461.26000         2.5547        15.2951         9.2810       143.9974         9.9996        98.8769         1.2697        27.6513        33.1462        32.5001        37.5991        21.7131        17.0706       0.130760       0.174460
    2461.41240         2.5213        21.5304         9.5799       131.6122        10.0600        98.8579         1.2638        47.3125        51.9653        42.0207        45.1113        19.2555        16.3900       0.121821       0.165521
    2461.56480         2.5428        35.0400         9.7404       112.1293         9.9015        98.7878         1.2579        44.9868        52.0418        41.4181        44.3087        16.4060        14.4157       0.118459       0.162159
    2461.71720         2.5529        37.0502         9.9228       107.6779         9.7051        97.9760         1.2547        30.7949        42.2233        38.5927        41.8614        16.5618        12.9565       0.118128       0.161828
    2461.86960         2.5689        20.8500        10.1184       109.5665         9.3242        97.0459         1.2522        31.7302        43.2560        39.8079        41.7301        20.0234        12.5113       0.116882       0.160536
    2462.02200         2.5832        14.8083        10.2204       111.0669         9.1799        97.0459         1.2495        26.6569        36.4999        34.3901        36.6585        21.5420        13.8590       0.118704       0.162352
    2462.17440         2.5677        16.0140        10.0753       115.3001         9.2663        97.0459         1.2467        33.8028        42.6570        37.0184        40.0003        21.9574        15.1074       0.128194       0.171943
    2462.32680         2.5746        14.9587         9.8449       120.3017         9.3462        97.0459         1.2442        44.1830        52.1718        42.8209        44.7779        23.9301        14.9633       0.136734       0.180482
