~Version Information Block
VERS .                  2.0:  CWLS LOG ASCII STANDARD - VERSION 2.0
WRAP .                   NO:  One line per depth step
~Well Information Block
#MNEM.UNIT        Data Type   Information
#---------- ----------------  -----------
STRT .M          1768.14480:  START DEPTH
STOP .M          2733.75120:  STOP DEPTH
STEP .M             0.15240:  STEP
NULL .              -999.25:  NULL VALUE
COMP .                     :  COMPANY
WELL .              BNG-056:  WELL
FLD  .                     :  FIELD
LOC  .                     :  LOCATION
CTRY .                     :  COUNTRY
STAT .                     :  STATE
CNTY .                     :  COUNTY
SRVC .                     :  SERVICE COMPANY
DATE .                     :  DATE
API  .                     :  API NUMBER
UWI  .                     :  UNIQUE WELL ID
~Curve Information Block
#MNEM.UNIT         API CODE   Curve Description
#---------- ----------------  -----------------
DEPTH.M                    :  
ALCDLC.G/CC                 :  ALD LCRB Comp Density
ALDD .PTPM                 :  ALD Data Density
DGDD .PTPM                 :  DGR Data Density
DGRCC.GAPI                 :  DGR Comb Gamma Ray BCorr
EWDD .PTPM                 :  EWR Data Density
EWTEMP.DEGC                 :  EWR Temperature
EWXT .HR                   :  EWR Formation Exp Time
R09PC.OHMM                 :  9in Phase Resistivity BC
R15PC.OHMM                 :  15in Phase Resistivity BC
R27PC.OHMM                 :  27in Phase Resistivity BC
R39PC.OHMM                 :  39in Phase Resistivity BC
ROPA .M/HR                 :  Avg Rate of Penetration
TNDD .PTPM                 :  CTN Data Density
TNPL .V/V                  :  CTN Porosity Limestone
TNPS .V/V                  :  CTN Porosity Sandstone
~Parameter Information Block
#MNEM.UNIT            Value   Description
#---------- ----------------  -----------
PROJECT.     ZZZ_STUDY@PETROPISIK:  
SET  .      LWD_8_5_RM_TRIM:  
~Other Information Block
# 
~A       DEPTH         ALCDLC           ALDD           DGDD          DGRCC           EWDD         EWTEMP           EWXT          R09PC          R15PC          R27PC          R39PC           ROPA           TNDD           TNPL           TNPS 
# ...
    2586.83760         2.5670        27.5464        22.5705       115.3404        14.7185        97.6563         1.5900        16.4169        18.7911        18.3528        19.6903        16.8287        24.6181       0.137922       0.181622
    2586.99000         2.5324        22.7445        21.4572       120.9331        17.6803        97.6563         1.5748        13.7677        16.0446        15.9377        17.4002        10.1520        26.3866       0.130840       0.174540
    2587.14240         2.5368        22.8329        25.3018       111.2322        20.9775        97.6563         1.5634        19.0530        22.4682        19.7914        20.2572        10.4745        27.7097       0.123627       0.167389
    2587.29480         2.5278        24.1496        20.6658       112.6116        23.1696        97.6666         1.5630        17.0685        21.0521        18.8311        19.3801        22.3739        25.8530       0.122980       0.166717
    2587.44720         2.4752        22.5368        16.5979       120.2545        22.9481        97.9166         1.5673        13.2267        16.2505        16.2367        17.5056        29.6968        23.6922       0.115800       0.159370
    2587.59960         2.4486        20.4897        18.1680        98.7534        22.1853        98.1936         1.5712        11.2748        14.1515        15.2741        16.9244        29.6533        22.1069       0.103233       0.146534
    2587.75200         2.4445        22.1874        19.9076        72.4847        57.6153        98.2666         1.5740         9.8504        13.5868        15.7208        17.9594        27.2704        22.7746       0.099916       0.143252
    2587.90440         2.4517        21.5330        21.1964        59.7684       119.0819        98.2666         1.5771         9.6248        13.8779        16.5498        19.0982        24.6042        59.6018       0.108026       0.151565
    2588.05680         2.4717        23.4924        20.4136        57.8959        50.7511        98.2666         1.5792         9.2677        13.4763        15.8619        18.3057        23.8477        50.4903       0.112824       0.156495
    2588.20920         2.4720        27.1051        24.0724        63.3596        43.6150        98.2666         1.6900        14.2925        20.4084        21.1125        23.0720        24.3567        20.4255       0.113473       0.157100
    2588.36160         2.4779        24.7643        48.0566        64.9600        50.8996        98.2666         1.7366        16.3351        23.2585        23.3412        25.1309        24.2526        18.0942       0.116327       0.160002
    2588.51400         2.4824        25.3887        40.8198        69.9817        21.0062        98.2666         1.8476        14.3260        20.5399        20.6257        22.8418        22.5247        21.4774       0.122468       0.166168
    2588.66640         2.4631        25.9484        31.2528        77.6752        12.1592        98.2666         1.7732        13.7661        20.2279        20.6934        23.3874        13.4928        21.7566       0.130774       0.174474
    2588.81880         2.4744        33.3140        21.3188        89.4468        13.6083        98.2666         1.3865        20.1846        30.3653        28.0113        28.0209         7.8765        20.7436       0.129849       0.173628
    2588.97120         2.5438        99.9057        15.8785        93.3067        20.1820        98.2666         1.0187        65.3151       134.1265        39.9242        37.2704         4.7255        19.0713       0.127807       0.171526
    2589.12360         2.5665        57.2256        12.7150       102.5442        26.3883        98.2666         0.9248       161.5625       351.7271        59.6312        48.7076        12.4207        20.2692       0.133515       0.177298
    2589.27600         2.5669        23.1061        31.6395       120.7078        40.5197        98.2666         0.9113        49.3555        89.5042        35.3564        34.3735        12.1094        20.3745       0.136144       0.179860
    2589.42840         2.5893        25.0346        46.2633       123.9661       153.2929        98.2666         0.9148        23.2166        28.0299        28.4046        30.0637        12.2020        20.8462       0.135458       0.179158
    2589.58080         2.6120        24.5866        28.2400       125.8413       140.3674        98.2666         0.9225        23.0093        27.0258        27.5381        30.2053        25.7402        21.3435       0.140619       0.184319
    2589.73320         2.5863        23.0081        28.9237       135.6984        96.8597        98.2666         0.9324        20.9009        25.4491        26.2421        29.6466        27.8934        23.1809       0.145218       0.188918
    2589.88560         2.4740        19.9472        19.6355       139.5817        37.1094        98.2666         0.9416        19.9932        25.5245        26.7643        30.2051        26.2201        20.7866       0.138558       0.182258
    2590.03800         2.4379        33.9810        18.5069       121.0084        18.8749        98.2666         0.9444        24.1794        31.9620        32.6194        35.6639        23.2242        20.5896       0.134672       0.178464
    2590.19040         2.4428        16.6492        15.5215        99.6054        18.3132        98.2666         0.9450        22.7375        32.9403        34.2212        38.2579        21.9294        22.2864       0.129814       0.173520
    2590.34280         2.4819        12.9436        17.5718        76.7002        21.3107        98.2666         0.9479        27.6168        41.0429        40.7097        44.1361        24.8931        25.7609       0.125502       0.169297
    2590.49520         2.4656        14.9483        37.5691        84.2199        21.6018        98.2666         0.9516        27.2747        40.5461        38.4365        41.0627        28.1117        28.9779       0.125687       0.169487
    2590.64760         2.4486        16.8658        52.0990        88.3681        25.7745        98.2666         0.9554        26.4241        37.1634        36.6917        39.1689        28.1338        31.7160       0.128750       0.172550
    2590.80000         2.4488        16.1628       105.8480        88.1353        18.9089        98.2666         0.9582        28.9765        41.4766        39.1315        41.0999        26.9230        25.7462       0.129500       0.173300
    2590.95240         2.4708        19.1339        24.7677        87.6312        30.1804        98.2666         0.9618        35.2104        50.4906        43.2348        43.9935        26.6092        20.8128       0.131854       0.175654
    2591.10480         2.5118        19.3274        23.6744        95.0660        19.3303        98.2666         0.9649        26.1494        34.4328        32.1176        36.0397        27.0168        23.7257       0.128885       0.172685
    2591.25720         2.5286        20.2629        25.6917       105.7818        16.1328        98.2666         0.9665        18.2870        23.7542        25.6458        29.7434        27.5847        23.7336       0.125280       0.169080
    2591.40960         2.4934        19.8374        27.5066       101.5228        18.4798        98.2666         0.9682        20.3747        28.0722        30.1600        33.5424        26.8027        21.5912       0.122766       0.166566
    2591.56200         2.4791        19.1581        26.8464        95.4576        20.3875        98.2666         0.9702        23.9779        31.7506        33.0489        36.6556        24.7440        20.3700       0.120952       0.164752
    2591.71440         2.5008        22.5952        26.0327        98.5225        20.5959        98.2666         0.9725        18.7789        27.1660        29.2487        34.0196        24.6282        23.0314       0.122998       0.166798
    2591.86680         2.5496        55.3698        23.3113       100.5017        21.9898        98.2666         0.9751        20.3505        27.2564        31.5846        36.9061        26.1751        21.0225       0.126024       0.169835
