~Version Information Block
VERS .                  2.0:  CWLS LOG ASCII STANDARD - VERSION 2.0
WRAP .                   NO:  One line per depth step
~Well Information Block
#MNEM.UNIT        Data Type   Information
#---------- ----------------  -----------
STRT .M          1768.14480:  START DEPTH
STOP .M          2733.75120:  STOP DEPTH
STEP .M             0.15240:  STEP
NULL .              -999.25:  NULL VALUE
COMP .                     :  COMPANY
WELL .              BNG-056:  WELL
FLD  .                     :  FIELD
LOC  .                     :  LOCATION
CTRY .                     :  COUNTRY
STAT .                     :  STATE
CNTY .                     :  COUNTY
SRVC .                     :  SERVICE COMPANY
DATE .                     :  DATE
API  .                     :  API NUMBER
UWI  .                     :  UNIQUE WELL ID
~Curve Information Block
#MNEM.UNIT         API CODE   Curve Description
#---------- ----------------  -----------------
DEPTH.M                    :  
ALCDLC.G/CC                 :  ALD LCRB Comp Density
ALDD .PTPM                 :  ALD Data Density
DGDD .PTPM                 :  DGR Data Density
DGRCC.GAPI                 :  DGR Comb Gamma Ray BCorr
EWDD .PTPM                 :  EWR Data Density
EWTEMP.DEGC                 :  EWR Temperature
EWXT .HR                   :  EWR Formation Exp Time
R09PC.OHMM                 :  9in Phase Resistivity BC
R15PC.OHMM                 :  15in Phase Resistivity BC
R27PC.OHMM                 :  27in Phase Resistivity BC
R39PC.OHMM                 :  39in Phase Resistivity BC
ROPA .M/HR                 :  Avg Rate of Penetration
TNDD .PTPM                 :  CTN Data Density
TNPL .V/V                  :  CTN Porosity Limestone
TNPS .V/V                  :  CTN Porosity Sandstone
~Parameter Information Block
#MNEM.UNIT            Value   Description
#---------- ----------------  -----------
PROJECT.     ZZZ_STUDY@PETROPISIK:  
SET  .      LWD_8_5_RM_TRIM:  
~Other Information Block
# 
~A       DEPTH         ALCDLC           ALDD           DGDD          DGRCC           EWDD         EWTEMP           EWXT          R09PC          R15PC          R27PC          R39PC           ROPA           TNDD           TNPL           TNPS 
# ...
    2022.04320         2.3922        14.0905        14.2616        77.4256        17.3506        87.8906         0.7473         5.3217         6.4238         7.0866         8.3692        28.8143        11.4924       0.137188       0.180017
    2022.19560         2.4055        12.7034        14.4468        80.7628        19.3987        87.8906         0.7497         5.5508         6.9000         7.7454         9.0869        29.2313        10.6960       0.141396       0.184235
    2022.34800         2.4155        11.4369        14.5135        77.4074        19.9525        87.8906         0.7523         6.9675         8.8622         9.8422        10.9963        28.0449        11.0158       0.155928       0.198532
    2022.50040         2.4233        11.6531        14.6291        83.0324        16.9909        87.8906         0.7545        10.8360        13.0809        13.3657        13.6407        28.1984        11.0610       0.174403       0.216669
    2022.65280         2.4752        11.3730        14.6745        93.9308        14.3455        87.8906         0.7560        13.8575        15.3259        14.5225        14.1043        29.2596        10.9212       0.185084       0.227049
    2022.80520         2.5268        11.0110        14.9884       112.3529        13.6149        87.8906         0.7569        13.2296        13.7733        13.1475        12.8429        31.1538        11.0667       0.182664       0.224674
    2022.95760         2.5540        11.2682        15.6311       126.9115        13.0451        87.8906         0.7575        13.1407        13.9350        13.1473        12.4113        31.7134        10.9333       0.168854       0.211169
    2023.11000         2.5622        11.2544        15.3606       127.2666        13.0169        87.8906         0.7578        12.8095        13.9398        13.0958        12.1520        27.7916        11.0605       0.160080       0.202620
    2023.26240         2.5734        11.2367        14.4514       126.1403        13.6585        87.8906         0.7552        12.0629        13.1917        12.5915        11.7255        20.4094        10.8979       0.157310       0.199910
    2023.41480         2.5843        11.2115        14.3743       126.1263        13.7501        87.8906         0.7477        11.3602        12.1127        11.6662        10.9768        14.0024        10.5533       0.160347       0.202818
    2023.56720         2.5928        11.0138        14.2306       126.8409        13.7487        87.8906         0.7405         9.7249        10.0551         9.8166         9.5822        17.6426        10.8297       0.172430       0.214641
    2023.71960         2.6003        11.0914        14.1151       133.2455        13.9616        87.8906         0.7386         7.7209         8.0961         8.0526         8.1790        29.2205        11.0318       0.189370       0.231284
    2023.87200         2.6165        10.9074        13.9112       150.9146        14.7740        87.8906         0.7400         6.1794         6.5897         6.6615         7.0602        33.7199        11.0137       0.208044       0.249600
    2024.02440         2.6203       533.5656        12.7959       162.7034        15.1930        87.8906         0.7418         5.1602         5.4361         5.5681         6.2458        33.2892        10.6983       0.221913       0.263263
    2024.17680         2.6203      1029.0659        11.4452       167.9797        14.6581        87.8906         0.7444         4.4735         4.7371         4.9113         5.8174        33.0047        10.3712       0.223170       0.264521
    2024.32920         2.6173       475.0990        11.0865       180.4189        15.1957        87.8906         0.7490         4.2119         4.5044         4.7643         5.8588        33.7371         9.9147       0.220428       0.261775
    2024.48160         2.6016        10.3924        11.5649       187.9656        14.2343        87.8906         0.7544         4.6034         4.9018         5.2705         6.5171        34.8419         9.9326       0.211380       0.252898
    2024.63400         2.6045        10.2041        10.9447       178.0060        13.5380        87.8906         0.7577         5.5679         5.7788         6.1430         7.5217        34.3119        11.9337       0.193992       0.235860
    2024.78640         2.5980        10.2591        10.1214       158.1195        13.5175        87.8906         0.7589         6.4480         6.5510         6.6930         7.9403        31.4110        12.7814       0.212808       0.254462
    2024.93880         2.5225        10.5245        10.5376       145.4660        13.2288        87.8906         0.7597         6.9058         7.1972         7.2218         8.1038        29.3939        11.3170       0.263239       0.304580
    2025.09120         2.2411        10.7922        11.3643       146.5390        13.6142        87.8906         0.7608         6.6762         7.3653         7.6319         8.1908        31.6689        10.4502       0.310236       0.352266
    2025.24360         1.9255        11.4008        12.4175       138.5690        13.4799        87.8906         0.7621        12.6155        13.6793        11.9026        11.0448        34.4415        10.8448       0.364514       0.408637
    2025.39600         2.1311        11.0777        11.9166       115.0642        13.2487        87.8906         0.7636        23.3943        22.4285        16.3546        13.8770        35.6860        10.5745       0.367076       0.411408
    2025.54840         2.4547        10.7482        12.9156        96.7661        12.7191        87.8906         0.7648        18.1132        18.3752        13.8299        12.3481        36.3712        10.4463       0.282097       0.324422
    2025.70080         2.5626        10.7797        24.8165       109.3974        13.0872        87.8906         0.7657        11.7652        13.4818        12.0242        11.3746        36.3882        12.8272       0.202374       0.244277
    2025.85320         2.5843        10.6206        95.9180       135.9781        14.0236        87.8906         0.7670        10.2790        11.8237        11.7617        11.5128        35.8601        14.6518       0.169985       0.212360
    2026.00560         2.5949        11.0530        81.0601       148.3011        14.1574        87.8906         0.7684         9.3479        10.5542        11.1968        11.7803        33.8426        13.7075       0.152080       0.194791
    2026.15800         2.6009        12.3897        27.8466       154.3516        14.8094        87.8906         0.7695         9.4176        10.1554        10.9878        12.3120        30.5653        11.8019       0.139700       0.182572
    2026.31040         2.6087        12.0206        12.8950       156.5301        14.7273        87.8906         0.7703         9.5465         9.9790        10.6436        12.3245        28.3906        11.3868       0.125418       0.168318
    2026.46280         2.6158        11.4839        11.1370       154.4847        14.3047        87.8906         0.7695         9.6743         9.9889        10.3127        12.2307        24.7128        11.4762       0.114532       0.157357
    2026.61520         2.6013        11.3042        10.8398       152.6755        15.0892        87.8906         0.7473        10.4621        10.6635        10.6087        12.4033        20.2266        10.9241       0.107231       0.149954
    2026.76760         2.6065        10.9043        11.0849       147.8257        15.9072        87.8906         0.6794        11.3497        11.6149        11.1811        12.7319        15.9332        11.1620       0.099898       0.142363
    2026.92000         2.5828        10.4496        10.8210       154.0694        15.0205        87.8906         0.6103        11.4012        11.6234        11.1638        12.4980         8.1380        11.1806       0.100380       0.142860
    2027.07240         2.5325         9.9930        11.2681       154.0353        14.2761        87.8906         0.5908        10.8887        11.2843        10.9656        12.1528        10.5414        11.0888       0.098370       0.140870
