~Version Information Block
VERS .                  2.0:  CWLS LOG ASCII STANDARD - VERSION 2.0
WRAP .                   NO:  One line per depth step
~Well Information Block
#MNEM.UNIT        Data Type   Information
#---------- ----------------  -----------
STRT .M          1768.14480:  START DEPTH
STOP .M          2733.75120:  STOP DEPTH
STEP .M             0.15240:  STEP
NULL .              -999.25:  NULL VALUE
COMP .                     :  COMPANY
WELL .              BNG-056:  WELL
FLD  .                     :  FIELD
LOC  .                     :  LOCATION
CTRY .                     :  COUNTRY
STAT .                     :  STATE
CNTY .                     :  COUNTY
SRVC .                     :  SERVICE COMPANY
DATE .                     :  DATE
API  .                     :  API NUMBER
UWI  .                     :  UNIQUE WELL ID
~Curve Information Block
#MNEM.UNIT         API CODE   Curve Description
#---------- ----------------  -----------------
DEPTH.M                    :  
ALCDLC.G/CC                 :  ALD LCRB Comp Density
ALDD .PTPM                 :  ALD Data Density
DGDD .PTPM                 :  DGR Data Density
DGRCC.GAPI                 :  DGR Comb Gamma Ray BCorr
EWDD .PTPM                 :  EWR Data Density
EWTEMP.DEGC                 :  EWR Temperature
EWXT .HR                   :  EWR Formation Exp Time
R09PC.OHMM                 :  9in Phase Resistivity BC
R15PC.OHMM                 :  15in Phase Resistivity BC
R27PC.OHMM                 :  27in Phase Resistivity BC
R39PC.OHMM                 :  39in Phase Resistivity BC
ROPA .M/HR                 :  Avg Rate of Penetration
TNDD .PTPM                 :  CTN Data Density
TNPL .V/V                  :  CTN Porosity Limestone
TNPS .V/V                  :  CTN Porosity Sandstone
~Parameter Information Block
#MNEM.UNIT            Value   Description
#---------- ----------------  -----------
PROJECT.     ZZZ_STUDY@PETROPISIK:  
SET  .      LWD_8_5_RM_TRIM:  
~Other Information Block
# 
~A       DEPTH         ALCDLC           ALDD           DGDD          DGRCC           EWDD         EWTEMP           EWXT          R09PC          R15PC          R27PC          R39PC           ROPA           TNDD           TNPL           TNPS 
# ...
    2711.19600      -999.2500      -999.2500       442.0843       137.1966        34.0369       100.7080         1.6427        22.6516        27.8619        28.6944        34.7421        16.2841       188.8833       0.127964       0.172000
    2711.34840      -999.2500      -999.2500       313.8233       143.7535        54.4483       100.7080         1.6466        18.1341        23.0414        24.3486        30.2611        17.3054       102.0636       0.129002       0.173002
    2711.50080      -999.2500      -999.2500       142.1033       139.5718        38.2078       100.7080         1.6471        16.0815        22.7179        24.1560        30.5043        17.2356        35.0205       0.130538       0.174470
    2711.65320      -999.2500      -999.2500       133.0445       133.3917        31.1855       100.7080         1.6410        21.4414        30.8862        30.2424        36.5966        13.2760        47.7143       0.130112       0.174081
    2711.80560      -999.2500      -999.2500        77.7178       125.5557        34.3860       100.7080         1.6361        30.1252        42.3539        37.0539        42.9735         9.5120        71.4652       0.130856       0.174786
    2711.95800      -999.2500      -999.2500        43.8756       128.2443        33.4516       100.7080         1.6363        28.9617        43.4668        36.2420        40.8854         9.3521       106.7770       0.134468       0.178368
    2712.11040      -999.2500      -999.2500        33.1015       135.3271        33.3240       100.7239         1.6261        18.1204        26.0169        25.7455        29.7125        13.3360        92.3473       0.133786       0.177760
    2712.26280      -999.2500      -999.2500        31.9569       135.1637        28.2281       101.0874         1.5907        44.9450       113.4534        47.0430        50.9260        12.4469       131.6382       0.131295       0.175295
    2712.41520      -999.2500      -999.2500        33.1227       123.2162        26.8593       101.2922         1.5490       157.1454       246.8541        63.0070        70.8903         4.9269       150.0784       0.130546       0.174546
    2712.56760      -999.2500      -999.2500        49.6687       130.4499        32.5560       101.3184         1.5309        65.3725        85.3215        38.8774        45.4654         1.2234       104.6894       0.130657       0.174657
    2712.72000      -999.2500      -999.2500        60.8675       139.6870        34.1912       101.3184         1.5183        21.5571        26.5856        28.2865        34.9930         4.4228        46.8857       0.130700       0.174700
    2712.87240      -999.2500      -999.2500        53.7293       136.8096        29.7323       101.3184         1.4886        22.7355        29.5197        31.1379        37.4464         4.7927      -999.2500    -999.250000    -999.250000
    2713.02480      -999.2500      -999.2500       140.9101       134.0696        26.1074       101.3184         1.4602        27.0571        32.5344        32.9688        37.7748         4.1887      -999.2500    -999.250000    -999.250000
    2713.17720      -999.2500      -999.2500       136.9323       127.3072        31.6017       101.3184         1.4570        19.3863        26.0617        27.6504        33.9338         8.1772      -999.2500    -999.250000    -999.250000
    2713.32960      -999.2500      -999.2500        51.2653       118.1397        36.6790       101.3184         1.4600        24.1223        34.4982        34.0445        40.3125        18.8034      -999.2500    -999.250000    -999.250000
    2713.48200      -999.2500      -999.2500        29.1929       112.8894        42.2817       101.3184         1.4534        45.4512        81.6900        56.4417        59.3133        12.8762      -999.2500    -999.250000    -999.250000
    2713.63440      -999.2500      -999.2500        23.3675       111.1822        30.4010       101.3184         1.4481        48.5298        74.5231        55.1384        58.8750         9.1520      -999.2500    -999.250000    -999.250000
    2713.78680      -999.2500      -999.2500        35.6792       125.5383        29.1578       101.3184         1.4501        23.6285        36.7415        33.2078        38.6868        14.0275      -999.2500    -999.250000    -999.250000
    2713.93920      -999.2500      -999.2500        90.9764       127.1911       178.1283       101.3184         1.4580        22.6260        31.8874        33.6183        39.8876        24.4778      -999.2500    -999.250000    -999.250000
    2714.09160      -999.2500      -999.2500        54.8071       114.4382       243.8069       101.3184         1.4684        26.8250        34.8890        35.9069        42.3222        21.0956      -999.2500    -999.250000    -999.250000
    2714.24400      -999.2500      -999.2500        44.0126       116.4767        46.8562       101.3571         1.4749        25.7622        35.0867        34.6231        41.5173        16.1410      -999.2500    -999.250000    -999.250000
    2714.39640      -999.2500      -999.2500        30.2122       120.6243       131.8932       101.7792         1.4791        20.6954        30.4759        30.5233        36.9157        13.6950      -999.2500    -999.250000    -999.250000
    2714.54880      -999.2500      -999.2500        38.6235       112.4412       522.8442       101.9276         1.4967        24.7559        37.4287        35.7469        41.1419        10.9305      -999.2500    -999.250000    -999.250000
    2714.70120      -999.2500      -999.2500        66.0745       117.4934       194.2651       101.9287         1.4880        21.2994        33.2905        34.2910        39.8624         9.3208      -999.2500    -999.250000    -999.250000
    2714.85360      -999.2500      -999.2500        45.8368       119.2438        81.0124       101.9287         1.4919        22.7589        36.3058        35.5621        41.0444         7.5011      -999.2500    -999.250000    -999.250000
    2715.00600      -999.2500      -999.2500        62.7543       123.6279       282.6003       101.9287         1.5041        36.1878        61.8133        47.1865        47.3019        13.3373      -999.2500    -999.250000    -999.250000
    2715.15840      -999.2500      -999.2500       131.0441       124.7421       311.6881       101.9287         1.5162        27.6191        41.8699        39.2192        42.9550        24.8422      -999.2500    -999.250000    -999.250000
    2715.31080      -999.2500      -999.2500       244.0154       128.1699        89.4422       101.9287         1.5256        33.9899        43.6414        41.5395        46.6438        19.3988      -999.2500    -999.250000    -999.250000
    2715.46320      -999.2500      -999.2500       191.4739       126.9749        99.9799       101.9287         1.5354        22.3386        30.2170        30.0507        36.0372        15.4747      -999.2500    -999.250000    -999.250000
    2715.61560      -999.2500      -999.2500       187.7579       111.1857        80.1148       101.9287         1.5450        26.1665        34.7096        34.1653        39.2548         9.5720      -999.2500    -999.250000    -999.250000
    2715.76800      -999.2500      -999.2500       105.2421       104.3837        38.3541       101.9287         1.5464        40.4673        54.0341        46.6063        49.7833         8.4027      -999.2500    -999.250000    -999.250000
    2715.92040      -999.2500      -999.2500        21.3017       100.0737        32.8994       101.9287         1.5237        22.5429        29.9394        30.5921        35.8058         4.8535      -999.2500    -999.250000    -999.250000
    2716.07280      -999.2500      -999.2500        50.8044       104.0398        30.2346       101.9287         1.4957        22.8483        29.6771        31.3811        37.3114         5.7061      -999.2500    -999.250000    -999.250000
    2716.22520      -999.2500      -999.2500        79.5425       105.2669        35.3078       101.9397         1.4903        25.2576        34.2072        34.1648        39.9277        11.3337      -999.2500    -999.250000    -999.250000
