~Version Information Block
VERS .                  2.0:  CWLS LOG ASCII STANDARD - VERSION 2.0
WRAP .                   NO:  One line per depth step
~Well Information Block
#MNEM.UNIT        Data Type   Information
#---------- ----------------  -----------
STRT .M          1768.14480:  START DEPTH
STOP .M          2733.75120:  STOP DEPTH
STEP .M             0.15240:  STEP
NULL .              -999.25:  NULL VALUE
COMP .                     :  COMPANY
WELL .              BNG-056:  WELL
FLD  .                     :  FIELD
LOC  .                     :  LOCATION
CTRY .                     :  COUNTRY
STAT .                     :  STATE
CNTY .                     :  COUNTY
SRVC .                     :  SERVICE COMPANY
DATE .                     :  DATE
API  .                     :  API NUMBER
UWI  .                     :  UNIQUE WELL ID
~Curve Information Block
#MNEM.UNIT         API CODE   Curve Description
#---------- ----------------  -----------------
DEPTH.M                    :  
ALCDLC.G/CC                 :  ALD LCRB Comp Density
ALDD .PTPM                 :  ALD Data Density
DGDD .PTPM                 :  DGR Data Density
DGRCC.GAPI                 :  DGR Comb Gamma Ray BCorr
EWDD .PTPM                 :  EWR Data Density
EWTEMP.DEGC                 :  EWR Temperature
EWXT .HR                   :  EWR Formation Exp Time
R09PC.OHMM                 :  9in Phase Resistivity BC
R15PC.OHMM                 :  15in Phase Resistivity BC
R27PC.OHMM                 :  27in Phase Resistivity BC
R39PC.OHMM                 :  39in Phase Resistivity BC
ROPA .M/HR                 :  Avg Rate of Penetration
TNDD .PTPM                 :  CTN Data Density
TNPL .V/V                  :  CTN Porosity Limestone
TNPS .V/V                  :  CTN Porosity Sandstone
~Parameter Information Block
#MNEM.UNIT            Value   Description
#---------- ----------------  -----------
PROJECT.     ZZZ_STUDY@PETROPISIK:  
SET  .      LWD_8_5_RM_TRIM:  
~Other Information Block
# 
~A       DEPTH         ALCDLC           ALDD           DGDD          DGRCC           EWDD         EWTEMP           EWXT          R09PC          R15PC          R27PC          R39PC           ROPA           TNDD           TNPL           TNPS 
# ...
    2146.40160         2.6043         9.9465        14.1774       172.9059        17.9681        87.2803         1.5231        10.0423        10.4219        10.1261        11.3861        31.4706        11.8421       0.204482       0.246317
    2146.55400         2.6051         9.6873        18.8379       167.2115        19.0191        87.2803         1.5260        10.5908        11.0965        10.8937        12.2299        31.4740        12.2680       0.196600       0.238572
    2146.70640         2.6155         9.8801        18.0129       164.9368        16.8170        87.2803         1.5283        11.6048        12.4344        12.3360        13.6671        31.5934        12.0807       0.185634       0.227884
    2146.85880         2.6166         9.9581        13.9479       160.8853        16.9534        87.2803         1.5300        13.6080        14.3889        14.2468        15.3821        30.6276        11.3432       0.168344       0.210962
    2147.01120         2.6094        10.2465        12.4271       152.7865        17.9643        87.2803         1.5319        16.4916        16.7799        16.0607        16.8713        28.8282        11.1000       0.149322       0.192203
    2147.16360         2.6027        11.3745        12.9906       142.3700        16.9728        87.2803         1.5338        18.9472        19.1020        17.4391        18.0256        27.4893        11.1789       0.130816       0.173858
    2147.31600         2.5993        12.5513        14.6304       131.5910        14.3466        87.2803         1.5347        20.2072        20.8123        18.5446        18.8905        27.3356        11.7287       0.117244       0.160300
    2147.46840         2.5765        13.3221        14.0618       130.3543        14.4886        87.2887         1.5352        20.4506        20.9419        18.9467        19.1510        27.9086        11.5891       0.107186       0.150049
    2147.62080         2.5735        13.1365        12.3811       135.4485        13.6605        87.4774         1.5354        20.1638        20.7422        19.0957        19.1282        27.7741        11.0254       0.102319       0.145066
    2147.77320         2.5979        12.5707        12.0850       137.7688        12.1086        87.7814         1.5346        19.5350        20.4093        19.4897        19.3155        26.7550        11.1264       0.103242       0.146042
    2147.92560         2.6070        12.4960        12.5303       133.0834        11.8302        87.8906         1.5334        19.4943        20.2240        19.7200        19.4322        26.1381        10.9515       0.098258       0.140806
    2148.07800         2.6117        12.3277        12.7619       126.3422        11.7729        87.8906         1.5320        19.1104        19.9677        19.2858        18.8082        25.0810        10.9210       0.089776       0.131972
    2148.23040         2.6174        11.7484        12.2406       122.3369        12.5975        87.8906         1.5307        17.8479        18.5935        17.9671        17.4571        23.3601        10.8679       0.087926       0.130079
    2148.38280         2.6203        11.8222        11.9520       115.2514        15.1104        87.8906         1.5304        16.3105        16.6405        15.8918        15.4830        22.7958        10.3554       0.090114       0.132370
    2148.53520         2.6190        11.4041        11.6651       110.5170        17.6728        87.8906         1.5312        14.1911        14.2447        13.3291        13.0182        23.4176        10.1613       0.097462       0.140046
    2148.68760         2.5970        10.2162        11.0165       110.7484        17.8046        87.8906         1.5325        10.4221        10.4380         9.8518         9.9824        24.4463         9.9944       0.105804       0.148721
    2148.84000         2.5146         9.8871        11.0084       104.9165        17.0272        87.8906         1.5342         6.7818         7.1214         7.0322         7.5474        26.0097         9.8794       0.114000       0.157060
    2148.99240         2.4078        10.0814        11.4812        84.7371        17.7257        87.8906         1.5367         5.1405         5.8684         6.1312         6.7168        29.1389        10.0039       0.126670       0.169770
    2149.14480         2.3672        10.0151        11.4844        61.8090        17.3750        87.8906         1.5396         4.6131         5.5171         5.9571         6.4930        33.6798         9.8247       0.135550       0.178586
    2149.29720         2.3693        10.0005        11.7226        53.8555        16.2088        87.8906         1.5423         4.1068         4.7874         5.2582         5.8341        36.1097         9.8308       0.134649       0.177714
    2149.44960         2.3596         9.9973        11.4445        47.4655        14.3606        87.9153         1.5443         3.7760         4.2998         4.7171         5.3201        34.8022         9.8930       0.132370       0.175470
    2149.60200         2.3428         9.7067        11.1915        43.3697        12.9872        88.2154         1.5452         3.6619         4.1815         4.4322         4.9701        32.3753         9.9145       0.136148       0.179248
    2149.75440         2.3391         9.7668        11.3811        44.8315        18.3453        88.4553         1.5469         3.6226         4.1272         4.2767         4.7532        32.5568        10.1282       0.141441       0.184541
    2149.90680         2.3397         9.9363        11.1192        48.0127        19.8066        88.5010         1.5499         3.5860         4.0214         4.1268         4.5058        33.4713        10.1962       0.138058       0.181158
    2150.05920         2.3477         9.8810        11.0708        45.5366        13.9280        88.5010         1.5517         3.4940         3.8682         3.9068         4.1903        33.0023        10.2145       0.133552       0.176652
    2150.21160         2.3493         9.9725        10.9536        43.4408        14.5367        88.5010         1.5528         3.2702         3.6730         3.7309         3.9771        32.0368        10.0090       0.132451       0.175551
    2150.36400         2.3391         9.8559        11.3053        40.5034        19.3125        88.5010         1.5552         3.2209         3.7074         3.8266         3.9919        30.7754         9.7490       0.128524       0.171700
    2150.51640         2.3423         9.7390        11.7617        36.7245        17.9402        88.5010         1.5574         3.3556         3.9096         4.0501         4.1257        28.8113         9.9069       0.132577       0.175699
    2150.66880         2.3416         9.9189        11.7428        32.4156        14.0847        88.5010         1.5583         3.3352         3.7905         3.9021         3.9724        27.9447        10.0518       0.136238       0.179338
    2150.82120         2.3420         9.9073        12.3250        38.1580        11.8845        88.5010         1.5585         3.1843         3.5987         3.7106         3.8042        29.7919         9.8495       0.127750       0.170850
    2150.97360         2.3322         9.8830        12.0448        38.5494        13.3553        88.5010         1.5587         3.2028         3.6620         3.7679         3.8553        30.3949        10.5352       0.127330       0.170430
    2151.12600         2.3288        10.0141        11.7484        38.4784        14.7744        88.5010         1.5591         3.2032         3.6596         3.7366         3.8231        28.7971        11.9202       0.130136       0.173236
    2151.27840         2.3349         9.8022        11.1752        33.2219        14.1972        88.5010         1.5594         3.1510         3.5696         3.6632         3.7588        26.6857        12.7690       0.129230       0.172330
    2151.43080         2.3337         9.7160        10.5977        35.6100        12.4799        88.5272         1.5588         3.0537         3.4530         3.5633         3.6936        25.5509        13.7157       0.126646       0.169746
